OPIS Truckstop ID,Truckstop Name,Address,City,State,Rack ID,Retail Price,latitude,longitude
7,WOODSHED OF BIG CABIN,"I-44, EXIT 283 & US-69",Big Cabin,OK,307,3.00733333,36.5378651,-95.221358
9,KWIK TRIP #796,"I-94, EXIT 143 & US-12 & SR-21",Tomah,WI,420,3.28733333,43.978576,-90.5040214
20,PILOT TRAVEL CENTER #1243,"I-8, EXIT 119 & SR-85",Gila Bend,AZ,930,3.899,32.9478267,-112.716823
20,PILOT #1243,"I-8, EXIT 119 & SR-85",Gila Bend,AZ,930,3.899,32.9478267,-112.716823
28,LITTLEFIELD EXPRESS #2,"I-540, EXIT 12 & US-71",Fort Smith,AR,645,3.399,35.3880338,-94.4265011
35,ACI TRUCK STOP,US-46,Columbia,NJ,90,3.079,40.9257935,-75.09419126882887
36,SHENANDOAH TRUCK CENTER,"I-81, EXIT 273 & SR-703/SR-292",Mount Jackson,VA,60,2.899,38.7459482,-78.6422377
44,CIRCLE K #2612042,"I-35,  EXIT 271",Jarrell,TX,595,2.919,30.808943527310397,-97.6134712260449
46,PETRO STOPPING CENTER #348,"I-85,  EXIT 22 & CR-138",Shorter,AL,720,3.154,32.3948615,-85.916902
49,TA SEYMOUR TRAVEL CENTER,"I-65, EXIT 50 & US-50 & US-31",Seymour,IN,415,3.959,38.9592201,-85.8902547
50,TA COUNCIL BLUFFS TRAVEL CENTER,"I-29 & I-80, EXIT 3",Council Bluffs,IA,319,3.72566666,41.258841,-95.8519484
56,TOPS TRUCK STOP,"I-94, EXIT 182 & US-83",Sterling,ND,390,3.51566666,46.813878,-100.2915
75,Good 2 Go #709,US-50,Montrose,CO,810,3.424,38.4375391,-108.2403855
77,OASIS TRAVEL PLAZA,US-13,Laurel,DE,243,3.229,38.5565041,-75.5713141
79,DELAWARE TRUCK PLAZA,US-13 & US-40,New Castle                              ,DE,243,3.249,39.6159851,-75.662956
81,One9 #89,"I-75, EXIT 224",Ellenton,FL,225,3.439,27.5262425,-82.52146279295091
85,DOWNIEVILLE FUEL STOP,"I-70, EXIT 234",Dumont,CO,800,3.459,39.7646887,-105.600337
91,MOLLYS FOOD & FUEL,"I-20 & ST 22, EXIT 55",Crawfordville                           ,GA,135,3.499,33.5539938,-82.8961899
105,TA SAGINAW I 75 TRAVEL CENTER,"I-75, EXIT 144-B",Bridgeport,MI,260,3.269,41.1792695,-73.1887863
105,TA SAGINAW I 75 TRAVEL CENTER,"I-75, EXIT 144-B",Bridgeport,MI,260,3.339,41.1792695,-73.1887863
105,TA SAGINAW I 75 TRAVEL CENTER,"I-75, EXIT 144-B",Bridgeport,MI,260,3.429,41.1792695,-73.1887863
105,TA SAGINAW I 75 TRAVEL CENTER,"I-75, EXIT 144-B",Bridgeport,MI,260,3.289,41.1792695,-73.1887863
105,TA SAGINAW I 75 TRAVEL CENTER,"I-75, EXIT 144-B",Bridgeport,MI,260,3.399,41.1792695,-73.1887863
105,TA SAGINAW I 75 TRAVEL CENTER,"I-75, EXIT 144-B",Bridgeport,MI,260,3.299,41.1792695,-73.1887863
118,Lupton Truck Stop #567,"I-40, EXIT 359",Lupton,AZ,580,3.299,35.3539127,-109.053701
121,PETRO STOPPING CENTER #306,"I-10, EXIT 200",Eloy,AZ,930,3.474,32.7551703,-111.553493
127,CIRCLE K #4700095,US-41,Henderson,KY,340,3.609,37.76721,-87.5573742
128,THE EFFINGHAM CHROME SHOP,"I-57 & I-70, EXIT 159",Effingham                               ,IL,510,3.399,39.0943196038767,-88.5812692775444
128,THE EFFINGHAM CHROME SHOP,"I-57 & I-70, EXIT 159",Effingham                               ,IL,510,3.349,39.0943196038767,-88.5812692775444
128,THE EFFINGHAM CHROME SHOP,"I-57 & I-70, EXIT 159",Effingham                               ,IL,510,3.549,39.0943196038767,-88.5812692775444
135,LOVES TRAVEL STOP #766,"I-80, EXIT 27",Atkinson,IL,290,3.589,41.4208678,-90.0151121
135,LOVES TRAVEL STOP #766,"I-80, EXIT 27",Atkinson,IL,290,3.389,41.4208678,-90.0151121
135,LOVES TRAVEL STOP #766,"I-80, EXIT 27",Atkinson,IL,290,3.449,41.4208678,-90.0151121
147,SPEEDWAY #8039,"I-69, EXIT 234 & SR-67",Daleville,IN,375,3.624,40.1211546,-85.5580301
149,RAYS TRUCK WASH,"I-69, EXIT 309 & US-30",Fort Wayne                              ,IN,370,3.59233333,41.0799898,-85.1386015
151,CUBBYS #2101,"I-80, EXIT 211 & SR-47",Gothenburg,NE,475,3.13233333,40.9277324,-100.1619896
159,PILOT TRAVEL CENTER #87,"I-10, EXIT 343",Jacksonville,FL,75,3.859,30.3321838,-81.655651
159,PILOT TRAVEL CENTERS #87,"I-10, EXIT 343",Jacksonville,FL,75,3.859,30.3321838,-81.655651
160,PILOT TRAVEL CENTERS #79,"I-12, EXIT 10 AT MILE 10",Denham Springs                          ,LA,600,3.23233333,30.4868564,-90.9562125
164,FLYING J TRAVEL PLAZA #650,"I-94, EXIT 15 B",Lake Station                            ,IN,365,3.809,41.5750369,-87.2389246
167,FLYING J TRAVEL PLAZA #653,RT 2 & I-65 EXIT 240,Hebron,IN,365,3.43566666,41.3186482,-87.2003091
174,Hop-In Food Stores,US-59 & SR-224,Nacogdoches                             ,TX,618,2.859,31.68081562252566,-94.66556566390013
184,SAPP BROS TRAVEL CENTER,"I-29 & I-80, EXIT 1B",Council Bluffs,IA,486,3.719,41.258841,-95.8519484
186,COFFEE CUP FUEL STOP #5,"I-90, EXIT 154 & US-16",Moorcroft                               ,WY,822,3.239,44.263315,-104.950252
187,DUDLEYS CORNER,"I-35, EXIT 165 & SR-3",Latimer,IA,433,3.23233333,42.7635903,-93.3687645
191,KUM & GO #0302,"I-35, EXIT 193 & SR 106",Clear Lake,IA,433,3.18566666,43.1370751,-93.3813637
192,Brew Stuart Truckstop,"I-80, EXIT 93",Stuart                                  ,IA,320,3.099,41.5033213,-94.3185737
195,PETRO STOPPING CENTER #311,"I-40 & I-55, EXIT 280",West Memphis,AR,435,3.36733333,35.1464797,-90.1845388
198,SINCLAIR,"I-76, EXIT 115",Atwood,CO,800,3.299,40.5457265,-103.27981237841803
199,PETRO STOPPING CENTER #366,"I-70, EXIT 252",Salina,KS,523,3.80566666,38.8402805,-97.6114237
203,PILOT TRAVEL CENTER #31,"I-80/94, EXIT 2",Highland,IN,365,3.829,38.0450618,-87.562929
203,PILOT TRAVEL CENTERS #31,"I-80/94, EXIT 2",Highland,IN,365,3.799,38.0450618,-87.562929
207,MARATHON,SR-32,Sardinia                                ,OH,300,3.56566666,39.0078448,-83.8085377
216,CIRCLE K #2721593,"I-10, EXIT 50",Ocean Springs,MS,715,3.41566666,30.4112904,-88.8279165
217,NORTH 9TH 24/7,"I-70, EXIT 252",Salina,KS,523,3.02566666,38.8402805,-97.6114237
231,DERBY CITYS TRUCK PLAZA,"I-75, EXIT 62 & US-25",Mount Vernon,KY,410,2.999,37.3529436,-84.3404195
235,PILOT TRAVEL CENTERS #92,"I-75, EXIT 358",Ocala,FL,225,3.359,29.1871986,-82.1400923
235,PILOT TRAVEL CENTER #92,"I-75, EXIT 358",Ocala,FL,225,3.41233333,29.1871986,-82.1400923
240,LA 1 SOUTH TRUCKSTOP,"I-10, EXIT 153 & SR-1",Port Allen,LA,600,3.039,30.45335,-91.2100569
243,SAVE,US-41 & SR-10,Lake Village,IN,399,3.179,41.130061999999995,-87.43889774760288
244,BIG D TRUCK TRAVEL PLAZA,"I-10, EXIT 92 & SR-95",Duson,LA,725,2.98233333,30.2378751,-92.1801925
248,Mardi Gras Truck Stop,"I-10, EXIT 236",New Orleans,LA,725,3.729,29.9759983,-90.0782127
250,GOLDEN OX TRUCK STOP,"I-70/US-40, EXIT 159 & US-183",Hays,KS,523,3.499,38.8791783,-99.3267702
253,LOVES TRAVEL STOP #450,"I-40, EXIT 280 & I-55, EXIT 4",West Memphis,AR,435,3.32566666,35.1464797,-90.1845388
256,BFS FOODS #66,"I-68/US-40, EXIT 22 & US-219",Grantsville                             ,MD,165,3.899,39.6991282,-79.1577212
257,PILOT TRAVEL CENTER #917- TOWN PUMP,I-15 & 31ST STREET EXIT 277,Great Falls                             ,MT,815,3.63566666,47.5048851,-111.29189
263,CASEYS #3956,I-94 EXIT 16,Bridgman,MI,465,3.559,41.9430986,-86.5569659
267,CORNER MARKET #117,SR-154 & SR-129,Dodge City,KS,357,3.399,37.7527982,-100.0170787
269,PILOT TRAVEL CENTERS #24,"I-75, EXIT 15",Monroe                                  ,MI,325,3.299,39.42013685,-84.34931234751937
269,PILOT TRAVEL CENTERS #24,"I-75, EXIT 15",Monroe                                  ,MI,325,3.249,39.42013685,-84.34931234751937
269,PILOT TRAVEL CENTERS #24,"I-75, EXIT 15",Monroe                                  ,MI,325,3.439,39.42013685,-84.34931234751937
269,PILOT TRAVEL CENTERS #24,"I-75, EXIT 15",Monroe                                  ,MI,325,3.349,39.42013685,-84.34931234751937
269,PILOT TRAVEL CENTERS #24,"I-75, EXIT 15",Monroe                                  ,MI,325,3.559,39.42013685,-84.34931234751937
278,CARLISLE PLAZA,US-41,Carlisle,IN,510,3.499,38.9622119,-87.4028708
281,CIRCLE K #4700065,"I-65, EXIT 76 & US-31",Taylorsville,IN,375,3.399,39.2958844,-85.9508264
289,LOVES TRAVEL STOP #173,"I-70, MM 209",Lawrence,KS,553,3.229,38.9719137,-95.2359403
292,PETES #56,US-169 & CR-5000,Cherryvale,KS,307,3.23233333,37.270344,-95.5524788
293,LOVES TRAVEL STOP #176,"I-35, MILE MARKER 97",Matfield Green,KS,336,3.25566666,38.1591843,-96.5605664
304,FL Roberts,"I-91, EXIT 4",Springfield,MA,100,3.599,42.1018764,-72.5886727
309,QUIKTRIP #231,"I-635, EXIT 3",Kansas City,KS,400,3.199,39.1134562,-94.626497
323,SAPP BROS TRAVEL CENTER,"I-80, EXIT 126",Ogallala,NE,475,3.46566666,41.1248328,-101.7189583
326,FLYING J TRAVEL PLAZA #748,"I-15, EXIT 357",Willard                                 ,UT,835,3.749,41.4085496,-112.03819
341,TA JACKSONVILLE SOUTH TRAVEL CENTER,"I-95, EXIT 329",Saint Johns,FL,75,3.469,29.9032284,-81.4145468
347,7-ELEVEN #40514,I-90/80-IN TOLL RD MM 22E,Portage,IN,365,3.99066666,41.5758708,-87.1761455
358,TA BINGHAMTON TRAVELCENTER,"I-81N, EXIT 2W & I-81S, EXIT 3",Binghamton,NY,32,3.769,42.098698,-75.9125187
358,TA BINGHAMTON TRAVELCENTER,"I-81N, EXIT 2W & I-81S, EXIT 3",Binghamton,NY,32,3.689,42.098698,-75.9125187
358,TA BINGHAMTON TRAVELCENTER,"I-81N, EXIT 2W & I-81S, EXIT 3",Binghamton,NY,32,3.699,42.098698,-75.9125187
358,TA BINGHAMTON TRAVELCENTER,"I-81N, EXIT 2W & I-81S, EXIT 3",Binghamton,NY,32,3.739,42.098698,-75.9125187
361,CIRCLE K #2726293,"I-295, EXIT 25",Jacksonville,FL,75,3.31566666,30.3321838,-81.655651
368,WILTON TRAVEL PLAZA,"I-87, EXIT 16",Gansevoort                              ,NY,12,3.749,43.196027,-73.651484
368,WILTON TRAVEL PLAZA,"I-87, EXIT 16",Gansevoort                              ,NY,12,3.799,43.196027,-73.651484
372,GAS DEPOT,"I-94, EXIT 5",Hammond,IN,365,3.999,41.6173959,-87.5220108
381,7-Eleven #41830,US-69 & US-135,Jacksonville,TX,630,2.91566666,31.963778,-95.2705042
387,Circle K #2709664,"I-8, EXIT 12",Yuma,AZ,930,3.489,32.659646300000006,-114.36434519043962
388,Pilot Travel Centers #14,"I-71, EXIT 131",Sunbury,OH,315,3.719,40.2425623,-82.8590673
391,PILOT TRAVEL CENTERS #13,"I-71, EXIT 209",Seville,OH,305,3.699,41.010077,-81.8622222
403,TRUCKOMAT OF HEBRON,"I-70, EXIT 126 & SR-37",Hebron,OH,315,3.429,39.9617305,-82.4912676
407,FUEL MART #641,"I-80 & I-280, EXIT 71",Perrysburg                              ,OH,550,3.499,41.5571178,-83.6279321
421,PETRO STOPPING CENTER #316,"I-40 & I-35, EXIT 127",Oklahoma City,OK,483,3.30233333,35.45971329060396,-97.587518758835
424,E EXPRESS,"I-40, EXIT 166",Choctaw,OK,483,2.899,34.0246234,-95.52055
425,Neighbors Express,"I-16, EXIT 51",Dublin                                  ,GA,85,3.299,32.5404447,-82.903754
442,WESTERN COOP,US-385 & SR-2,Alliance,NE,795,3.324,42.0971897,-102.8707145
455,MR FUEL #753,"I-95, EXIT 104 & SR-207",Ruther Glen,VA,180,3.26566666,37.9287494,-77.4558151
456,THE COUNTRY OASIS,US-24,Woodburn                                ,IN,370,3.399,41.1253271,-84.8532963
458,HAPPY HILLS GAS & COFFEE,I-29 EXIT 110,Rock Port,MO,400,3.399,40.4111122,-95.5169286
460,TRUCK STOP 44,I-20 EXIT 44,Gilbert,SC,135,3.079,33.9243121,-81.3937132
461,SPINX #271,"I-26, EXIT 145 & US-601",Orangeburg,SC,42,3.26233333,33.4525530969879,-80.72432965273275
469,LOAF N JUG #750010,US-160 & SR-17,Alamosa,CO,803,3.259,37.5780995,-105.7890452
474,KEWANEE 1 STOP,"I-20, EXIT 169 & US-80",Toomsuba,MS,705,3.299,32.418474,-88.5069819
478,GASTRAK OF PEMBINA,"I-29, EXIT 215",Pembina                                 ,ND,355,3.299,48.7530787,-97.5532833
483,ALLSUPS #2387,US-54/SR-136/SR-3 & US-64,Guymon,OK,585,2.97566666,36.6828041,-101.4815493
486,LA NORIA CONV STORES,"I-35 N, EXIT 4",Laredo                                  ,TX,693,3.299,27.5075005,-99.5069922
489,EDDIES CORNER,US-87 & US-191,Moore,MT,815,3.749,46.975523,-109.696854
491,One9 #403,"I-75, EXIT 117",Heiskell,TN,405,2.999,36.081816,-84.0539821
496,PILOT TRAVEL CENTERS #270,"I-40 & I-75, EXIT 374",Knoxville,TN,405,3.439,35.97603695,-83.93144881048028
509,LOVES TRAVEL STOPS #256,"I-10, EXIT 140B",Van Horn,TX,640,3.649,31.0429718,-104.831628
509,LOVES TRAVEL STOP #256,"I-10, EXIT 140B",Van Horn,TX,640,3.649,31.0429718,-104.831628
522,GO MART FOOD STORE #57,"I-70 & ST-285, EXIT 186",Lore City                               ,OH,430,3.179,39.9847938,-81.4584523
523,CIRCLE K #2723322,"I-985, EXIT 20 & SR-60",Gainesville,GA,18,3.26566666,34.26259031107526,-83.81471292380913
525,FASTBREAK,US-45 ALT,West Point,MS,705,3.059,33.6076186,-88.6503255
546,PLAZA 30,US-30,Wanatah,IN,365,3.499,41.4305964,-86.898358
557,SAPP BROS TRAVEL CENTER,"I-80, EXIT 73",Peru,IL,290,3.389,41.3272919,-89.1287636
557,SAPP BROS TRAVEL CENTER,"I-80, EXIT 73",Peru,IL,290,3.589,41.3272919,-89.1287636
557,SAPP BROS TRAVEL CENTER,"I-80, EXIT 73",Peru,IL,290,3.449,41.3272919,-89.1287636
557,SAPP BROS TRAVEL CENTER,"I-80, EXIT 73",Peru,IL,290,3.289,41.3272919,-89.1287636
559,SHELL MORGAN ROAD TRUCK STOP,"I-40, EXIT 142",Maumelle,AR,695,3.20733333,34.856613,-92.4056858
566,TA GARY TRAVEL CENTER,"I-80/I-94, EXIT 6",Gary,IN,365,3.83066666,41.6020962,-87.3370646
567,TA ELOY TRAVEL CENTER,"I-10 & I-8, EXIT 203",Eloy,AZ,930,3.459,32.7551703,-111.553493
572,PILOT TRAVEL CENTER #881,"I-69, EXIT 309A",Fort Wayne                              ,IN,370,3.899,41.0799898,-85.1386015
572,PILOT TRAVEL CENTERS #881,"I-69, EXIT 309A",Fort Wayne                              ,IN,370,3.879,41.0799898,-85.1386015
576,PETRO STOPPING CENTER #343,"I-10, EXIT 76",Egan,LA,600,3.624,30.2368713,-92.505969
578,LOVES TRAVEL STOP #449,"I-84, EXIT 17",Troutdale,OR,935,3.779,45.5392862,-122.3873133
579,FLYING J TRAVEL PLAZA #764,"I-80, EXIT 104 & US-191",Rock Springs,WY,835,3.67066666,41.5860557,-109.2194544
586,AMERISTAR TRAVEL PLAZA #120,"I-82, EXIT 80",Prosser,WA,925,4.399,46.2067583,-119.76916
586,AMERISTAR TRAVEL PLAZA #120,"I-82, EXIT 80",Prosser,WA,925,4.559,46.2067583,-119.76916
588,TA TUSCALOOSA TRAVEL CENTER,"I-20/I-59, EXIT 77",Cottondale,AL,615,2.964,33.18079206765109,-87.44485603015853
591,TA Concordia Travel Plaza,"I-70, EXIT 58 & SR-23",Concordia,MO,400,3.22566666,38.9824542,-93.5685013
599,Sapp Bros Travel Center,"I-80, EXIT 59 & SR-17J",Sidney,NE,475,3.50066666,41.1448682,-102.9767382
602,JIFFY MART EXIT 18 TRUCK STOP,"I-89/SR-120, EXIT 18 & SR-120",Lebanon,NH,12,3.599,43.68322712013102,-72.26869768788502
614,TA MAYBROOK TRAVEL CENTER,"I-84, EXIT 5",Montgomery,NY,120,4.359,42.8941269,-74.4099745
628,KWIK FILL #227,"I-90,  EXIT 218",Geneva,OH,305,3.15233333,41.8052539,-80.9476206
629,FLYING J #850,TCH-16,Edmonton,AB,80,4.39948962,36.9800563,-85.6121906
629,FLYING J #850,TCH-16,Edmonton,AB,80,4.39625375,36.9800563,-85.6121906
629,FLYING J #850,TCH-16,Edmonton,AB,80,4.40695023,36.9800563,-85.6121906
629,FLYING J #850,TCH-16,Edmonton,AB,80,4.40630048,36.9800563,-85.6121906
629,FLYING J #850,TCH-16,Edmonton,AB,80,4.39722401,36.9800563,-85.6121906
629,FLYING J #850,TCH-16,Edmonton,AB,80,4.3981947,36.9800563,-85.6121906
636,UNION 76,"I-5, EXIT 233 E",Albany,OR,935,3.379,44.6365071,-123.1059324
651,ONE9 #1366,"I-40, EXIT 126 & US-641",Holladay,TN,460,2.98566666,35.870619,-88.1458719
652,TA KNOXVILLE EAST TRAVEL CENTER,"I-40 & I-75, EXIT 374",Knoxville,TN,405,3.42566666,35.97603695,-83.93144881048028
659,FLYING J #869,HWY 2 SOUTH,Nanton,AB,50,4.39948962,40.09312623180195,-74.970613222627
659,FLYING J #869,HWY 2 SOUTH,Nanton,AB,50,4.59317483,40.09312623180195,-74.970613222627
659,FLYING J #869,HWY 2 SOUTH,Nanton,AB,50,4.59114784,40.09312623180195,-74.970613222627
659,FLYING J #869,HWY 2 SOUTH,Nanton,AB,50,4.60163996,40.09312623180195,-74.970613222627
659,FLYING J #869,HWY 2 SOUTH,Nanton,AB,50,4.59216111,40.09312623180195,-74.970613222627
659,FLYING J #869,HWY 2 SOUTH,Nanton,AB,50,4.60231851,40.09312623180195,-74.970613222627
669,PETRO STOPPING CENTER #350,"I-10,  EXIT 4",Canutillo,TX,640,3.499,31.9124684,-106.598098
672,CROWN POINT TRUCK STOP,"I-295/US-130,EXIT 22",Thorofare,NJ,150,3.549,39.8539265,-75.1982181678051
680,TA EXPRESS SUMMIT,"I-29, EXIT 207 & US-12",Summit,SD,566,3.20566666,45.304406,-97.036466
684,7-ELEVEN #35101,"I-86/SR-17, EXIT 16",Randolph,NY,38,4.499,42.162005,-78.975317
689,FLYING EAGLE,"I-235, EXIT 4",Wichita,KS,570,3.499,37.68118565,-97.38720322122725
692,BP,US-63,Ottumwa,IA,489,3.399,41.0195659,-92.4116886
739,Arco #364420,US-23,Greenup,KY,255,3.649,38.5108112,-82.9180186
748,QUIKTRIP #4231,US-85,Evans,CO,800,3.17233333,40.3772168,-104.6977634
769,AYERCO #26,US-61/US-136,Alexandria,MO,345,3.01566666,40.3594887,-91.455432
815,Kwik Trip #1508,"US-18/SR-151, EXIT 58",Barneveld,WI,420,3.489,43.0153376,-89.8958792
855,SPEEDWAY #7459,US-41 & SR-137,North Chicago,IL,293,3.379,42.327724,-87.8394189
855,SPEEDWAY #7459,US-41 & SR-137,North Chicago,IL,293,3.499,42.327724,-87.8394189
855,SPEEDWAY #7459,US-41 & SR-137,North Chicago,IL,293,3.289,42.327724,-87.8394189
863,Ocean Fuel,US-301/SR-73,Sylvania,GA,195,3.499,32.7504441,-81.636776
906,PILOT TRAVEL CENTERS #429,"I-40, EXIT 280",West Memphis,AR,435,3.499,35.1464797,-90.1845388
906,PILOT TRAVEL CENTER #429,"I-40, EXIT 280",West Memphis,AR,435,3.291,35.1464797,-90.1845388
908,CIRCLE K #2704888,"I-65, EXIT 246 & SR-119",Pelham,AL,615,3.46566666,33.285669,-86.8099884
912,PETRO STOPPING CENTER #319,"I-20/59,  EXIT 100",Mc Calla,AL,615,3.12566666,40.833358231333634,-80.54553215334593
936,CASEYS #4254,"I-40, EXIT 129",Conway,AR,695,3.03233333,35.18311027704393,-92.75794204703949
970,CIRCLE K #2702885,"I-17/SR-60, EXIT 199A",Phoenix,AZ,930,3.39233333,33.4484367,-112.074141
977,PILOT TRAVEL CENTER #328,"I-10, EXIT 17",Quartzsite,AZ,930,3.959,33.6669903,-114.21681
977,PILOT TRAVEL CENTERS #328,"I-10, EXIT 17",Quartzsite,AZ,930,3.959,33.6669903,-114.21681
981,STINKER #85,"I-15, EXIT 93",Blackfoot,ID,825,3.53233333,43.190039,-112.348357
982,CIRCLE K #2701948,"I-8, EXIT 7 & SR-195",Yuma,AZ,900,3.56566666,32.659646300000006,-114.36434519043962
1028,FOUR STATES TRUCK STOP,"I-495, EXIT 4 & SR-9",New Castle,DE,243,3.449,39.6159851,-75.662956
1028,FOUR STATES TRUCK STOP,"I-495, EXIT 4 & SR-9",New Castle,DE,243,3.399,39.6159851,-75.662956
1042,Union 76,US-441 & SR-100A,Lake City,FL,75,3.56233333,30.1894252,-82.6394803
1043,ONE9 #1401,I-75 EXIT 414  & US-41,Lake City,FL,75,3.259,30.1894252,-82.6394803
1043,SHELL DBA ONE9 #1401,I-75 EXIT 414  & US-41,Lake City,FL,75,3.244,30.1894252,-82.6394803
1047,TA MARIANNA TRAVEL CENTER,"I-10/SR-8, EXIT 142 & SR-71",Marianna,FL,20,3.60733333,30.7743596,-85.2268735
1075,PILOT TRAVEL CENTER #68,"I-16 /SR-404, EXIT 51 & US-441",Dublin,GA,85,3.43233333,32.5404447,-82.903754
1075,PILOT TRAVEL CENTERS #68,"I-16 /SR-404, EXIT 51 & US-441",Dublin,GA,85,3.399,32.5404447,-82.903754
1106,CIRCLE K #2705367,"I-20, EXIT 172",Thomson,GA,16,3.399,33.4663248,-82.5026089
1112,BC AMPRIDE TRUCK PLAZA,US-59/SR-141,Denison,IA,527,3.399,42.0177718,-95.3553286
1115,KWIK STAR #704,SR-57/SR-14,Parkersburg,IA,565,3.58233333,42.5755594,-92.7870402
1121,TRAVELERS OASIS,"I-84, EXIT 182",Eden,ID,787,3.799,42.6059001,-114.209645
1128,TA CHICAGO NORTH TRAVEL CENTER,"I-94/US-41, EXIT 1",Wadsworth,IL,444,3.819,42.4286788,-87.9067248
1128,TA CHICAGO NORTH TRAVEL CENTER,"I-94/US-41, EXIT 1",Wadsworth,IL,444,3.879,42.4286788,-87.9067248
1128,TA CHICAGO NORTH TRAVEL CENTER,"I-94/US-41, EXIT 1",Wadsworth,IL,444,3.779,42.4286788,-87.9067248
1128,TA CHICAGO NORTH TRAVEL CENTER,"I-94/US-41, EXIT 1",Wadsworth,IL,444,3.769,42.4286788,-87.9067248
1132,SPEEDWAY #7423,"I-57, EXIT 83",Ina,IL,293,3.249,38.1511606,-88.9039554
1136,PILOT TRAVEL CENTER #171,"I-74, EXIT 206",Oakwood,IL,280,3.399,40.1161471,-87.7783592
1136,PILOT TRAVEL CENTER #171,"I-74, EXIT 206",Oakwood,IL,280,3.499,40.1161471,-87.7783592
1136,PILOT TRAVEL CENTER #171,"I-74, EXIT 206",Oakwood,IL,280,3.599,40.1161471,-87.7783592
1140,CIRCLE K #4701398,"I-55, EXIT 82 & SR-104",Divernon,IL,280,3.499,39.5656082,-89.6573192
1149,PILOT TRAVEL CENTER #30,"I-70, EXIT 96",Greenfield,IN,375,3.959,39.7855096,-85.7681979
1149,PILOT TRAVEL CENTERS #30,"I-70, EXIT 96",Greenfield,IN,375,3.959,39.7855096,-85.7681979
1151,SPEEDWAY #8061,"I-70, EXIT 115 & SR-109",Knightstown,IN,375,3.759,39.7956007,-85.5263629
1154,CIRCLE K #2704691,SR-71 & CR-214,Cedar Creek,TX,595,3.199,29.786029443279126,-100.16178725322526
1156,CIRCLE K #4700028,"I-74/US-421, EXIT 116 & SR-44",Shelbyville,IN,375,3.599,39.5214373,-85.7769238
1157,One9 #297,"I-70, EXIT 11 & SR-46",Terre Haute                             ,IN,510,3.43566666,39.4667025,-87.4139119
1158,PILOT TRAVEL CENTERS #36,US-30  & SR-49,Valparaiso,IN,365,3.869,41.4672552,-87.0604487
1158,PILOT TRAVEL CENTER #36,US-30  & SR-49,Valparaiso,IN,365,3.859,41.4672552,-87.0604487
1163,SHORT STOP #13,US-54,Emporia,KS,553,2.839,38.4040054,-96.181623
1176,PILOT TRAVEL CENTERS #353,"I-75, EXIT 129",Georgetown,KY,410,3.20566666,38.2099837,-84.5597128
1179,PILOT TRAVEL CENTERS #399,"I-65, EXIT 105",Lebanon Junction,KY,415,3.609,37.8345086,-85.7319042
1196,SOUTHERN BELLE TRUCK STOP,US-61 & SR-964,Saint Francisville,LA,725,3.384,30.7807244,-91.3763353
1199,ALLTOWN MARKETS #306,"I-190, EXIT 7",Leominster,MA,178,3.68233333,42.5267443,-71.7614891
1202,ONE9 #290,"I-95, EXIT 93 & SR-222",Perryville,MD,22,3.599,39.5594191,-76.0732254
1204,PETRO STOPPING CENTER #321,"I-70 & I-57, EXIT 159",Effingham,IL,574,3.549,39.0943196038767,-88.5812692775444
1204,PETRO STOPPING CENTER #321,"I-70 & I-57, EXIT 159",Effingham,IL,574,3.349,39.0943196038767,-88.5812692775444
1204,PETRO STOPPING CENTER #321,"I-70 & I-57, EXIT 159",Effingham,IL,574,3.439,39.0943196038767,-88.5812692775444
1204,PETRO STOPPING CENTER #321,"I-70 & I-57, EXIT 159",Effingham,IL,574,3.399,39.0943196038767,-88.5812692775444
1208,D AVENUE FUEL PLAZA,US-131,Kalamazoo,MI,465,3.499,42.291707,-85.5872286
1208,D AVENUE FUEL PLAZA,US-131,Kalamazoo,MI,465,3.099,42.291707,-85.5872286
1210,ROADHAWK TRAVEL CENTER,"I-94, EXIT 56 & SR-51",Paw Paw                                 ,MI,465,3.599,42.2178171,-85.8911246
1210,ROADHAWK TRAVEL CENTER,"I-94, EXIT 56 & SR-51",Paw Paw                                 ,MI,465,3.559,42.2178171,-85.8911246
1217,KWIK TRIP #250,"I-90, EXIT 179",Austin,MN,515,3.374,43.6679992,-92.9746498
1218,CASEYS #3658,SR-210,Pillager,MN,522,3.299,46.3299668,-94.4741744
1225,AYERCO #35,US-61 & US-61 BUS,Bowling Green,MO,494,3.01566666,39.3419891,-91.1951437
1234,Lamar Travel Plaza,US-71 & US-160,Lamar,MO,416,3.199,37.4950527,-94.2768736
1236,AYERCO #44,US-36 & US-24,Palmyra,MO,494,3.01566666,39.7942213,-91.5232557
1240,TEMP STOP #103,US-65,Sedalia,MO,400,3.199,38.7098314,-93.2295515
1247,SNAPPY MART #11,US-63 & SR-14,West Plains,MO,535,3.299,36.7281652,-91.8525756
1251,MAPCO #3009,US-72,Corinth,MS,435,3.154,34.9343599,-88.5223353
1256,DOUBLE QUICK #89,US-82/US-278,Greenville,MS,655,3.25566666,33.4111051,-91.0635857
1265,JOE JOES TRAVEL CENTER,US-78 & RED BANKS RD S,Red Banks,MS,435,2.97233333,34.8281516,-89.5645253
1304,LOVES TRAVEL STOP #667,"I-85, EXIT 152",Mebane,NC,65,3.94733333,36.0959715,-79.2669619
1315,CIRCLE K #2720218,US-421 BUS & US-15/US-501/US-1,Sanford,NC,177,3.08233333,35.4798757,-79.1802994
1325,SCOTCHMAN #3303,US-421 & US-74,Wilmington,NC,245,3.629,34.2257282,-77.9447107
1326,SPEEDWAY #7949,US-301/US-264 ALT & CR-1674,Wilson,NC,205,3.199,35.7059114,-77.9175714
1333,PUMP & PANTRY #15,US-30,Grand Island,NE,330,3.30733333,40.924271,-98.338685
1340,BORDENTOWN VALERO,"NJ TNPK, EXIT 7 & US-206",Bordentown,NJ,230,3.499,40.1462685,-74.7114508
1342,Delta,"I-80, EXIT 47B",Fairfield,NJ,115,3.20233333,40.8837102,-74.3059823
1344,BOLLA TRUCK STOP #193,US-202 & SR-17,Mahwah,NJ,115,3.53233333,41.0887072,-74.1437552
1348,GLOBAL,SR-73,Palmyra,NJ,150,3.359,40.0070565,-75.0282271
1356,LOVES TRAVEL STOP #257,"I-40 & HORIZON, EXIT 79",Milan,NM,580,3.59066666,35.1697175,-107.8908919
1364,7- ELEVEN #40507,"I-80/I-90, MM 56 WB",Rolling Prairie,IN,465,3.98233333,41.6745495,-86.6160192
1372,PILOT TRAVEL CENTER #469,"I-77, EXIT 101 & SR-627",Canton,OH,249,3.62233333,40.7985464,-81.3749508
1376,FUEL MART #782,"I-75, EXIT 118",Lima                                    ,OH,411,3.08566666,40.7399785,-84.105006
1379,TA LODI TRAVEL CENTER,"I-71, EXIT 209 & I-76/US-224, EXIT 1",Seville,OH,305,3.739,41.010077,-81.8622222
1384,SUNOCO,"I-80/I-90, EXIT 13 & US-20ALT/SR-15",Montpelier,OH,550,3.41566666,41.5844951,-84.6055076
1391,ONCUE EXPRESS #2045,"I-35, EXIT 203 & SR-15",Billings,OK,500,3.21566666,36.5289239,-97.4439362
1395,DOMINO FOOD AND FUEL #1,"I-40, EXIT 66",Clinton                                 ,OK,483,3.099,35.5156056,-98.9673069
1404,ONE9 #339,"I-74, EXIT 4 & SR-63",Covington,IN,375,3.26233333,40.1370345,-87.3970886
1414,SAC SHOP #507,"I-70, EXIT 12/161",Breezewood                              ,PA,14,4.099,39.9990119,-78.2404221
1424,GETTYSBURG TRAVEL PLAZA,US-15 & SR-394,Gettysburg,PA,70,3.899,39.8308973,-77.231012
1428,CIRCLE K #4702408,"I-65, EXIT 168 & SR-38/SR-25",Lafayette,IN,375,3.43233333,40.4191229,-86.8919011
1432,KWIK FILL #259,"I-81, EXIT 57",Mechanicsburg                           ,PA,70,4.049,40.2101972,-77.0047276
1444,PILOT TRAVEL CENTERS #346,"I-20, EXIT 92 & US-601",Lugoff,SC,135,3.43233333,34.219224,-80.70445403230252
1445,PILOT TRAVEL CENTERS #402,"I-80, EXIT 367",Cheyenne,WY,795,3.709,41.12255839323299,-104.80681547876131
1447,HOT SPOT #3005,US-221,Chesnee,SC,210,3.199,35.1484549,-81.8609371
1453,EXPRESS STOP,US-278/SR-101/SR-6 & SR-113,Rockmart,GA,193,3.319,34.0026005,-85.0416133
1455,PETRO FLORENCE,"I-95, EXIT 169",Florence,SC,46,3.32566666,34.1984435,-79.7671658
1461,CIRCLE K #2705370,"I-26, EXIT 15 & US-176",Inman,SC,210,3.099,35.047841,-82.0906082
1464,CIRCLE K #2723254,"I-20, EXIT 55 & SR-6",Lexington,SC,135,3.199,33.8986841,-81.275054
1470,CIRCLE K #2705348,US-1,Beech Island,SC,135,3.159,33.4273614,-81.8909473
1479,TA SPARTANBURG TRAVEL CENTER,"I-85, EXIT 63 & SR-290",Duncan,SC,210,3.43233333,34.9378962,-82.1451096
1487,ROADRUNNER MARKET #6019,"I-81, EXIT 36 NORTH",Greeneville                             ,TN,405,3.499,36.1631575,-82.8309861
1492,MAPCO #3538,"I-24, EXIT 174",Chattanooga,TN,285,2.899,35.0457219,-85.3094883
1507,CIRCLE K #4703941,"I-55, EXIT 5A",Memphis,TN,435,3.189,35.1460249,-90.0517638
1516,LOVES TRAVEL STOP #261,I-27 EXIT 116,Amarillo,TX,585,3.23233333,35.177792763612366,-101.84206856204996
1531,CircleK #4702365,"I-74, EXIT 112 & SR-9",Shelbyville,IN,375,3.509,39.5214373,-85.7769238
1533,YESWAY #1157,US-62,Brownfield,TX,700,2.99233333,33.1731185,-102.26926274653353
1546,SHELL,"I-35, EXIT 86 & SR-85",Dilley,TX,740,3.099,28.6695971,-99.1672017
1548,TOOT N TOTUM #107,US-287,Dumas,TX,585,3.03233333,35.8630199,-101.9663192
1552,STRIPES #40911,US-59 & SR-16,Freer,TX,625,3.099,27.8781306,-98.6142095
1555,SEIBERT TRAVEL PLAZA,"I-70, EXIT 405 & SR-59",Seibert,CO,800,3.499,39.30099,-102.8696143
1560,CATTREZ,US-20 & SR-5,Irving,NY,38,2.899,42.5675589,-79.1128169
1560,CATTREZ,US-20 & SR-5,Irving,NY,38,2.999,42.5675589,-79.1128169
1562,I MART #108,"I-40, EXIT 108",Wildersville                            ,TN,435,3.099,35.7814547,-88.3603243
1567,KUM & GO #4110,"I-235, EXIT 11",Des Moines,IA,320,3.02733333,41.5868654,-93.6249494
1579,FLYING J TRAVEL PLAZA #924- TOWN PUMP,"I-15, EXIT 122 & I-90 MM220",Butte                                   ,MT,816,3.56566666,46.0131505,-112.536508
1582,LOVES TRAVEL STOP #250,I-40 EXIT 60,Amarillo,TX,585,3.314,35.19561396742317,-101.85981412857859
1585,Stripes 7Fleet #42498,US-385 & CR-1910,Andrews,TX,710,3.369,32.2690953,-102.6042447
1590,ROAD RANGER #240,"I-80 & I-94, EXIT 15-A",Lake Station,IN,365,3.559,41.5750369,-87.2389246
1596,FLYING J #305,"I-40, EXIT 39",Jamestown,NM,580,3.44233333,35.20261824279824,-106.7497235935503
1597,7-ELEVEN #36156,"I-70 & SR-519, EXIT 25/333",Eighty Four,PA,165,4.999,40.1827171,-80.1331455
1599,ONVO TRAVEL PLAZA,"I-81, EXIT 10",Mc Graw,NY,220,3.439,42.93038655022885,-74.25557877473464
1599,ONVO TRAVEL PLAZA,"I-81, EXIT 10",Mc Graw,NY,220,3.459,42.93038655022885,-74.25557877473464
1602,CIRCLE K #2723387,US-98,Beaumont,MS,620,3.56566666,31.1693496,-88.9200444
1606,DONNAS TRAVEL PLAZA,"I-5, EXIT 202",Marysville,WA,962,4.559,48.0517429,-122.1768209
1610,TA BALTIMORE TRAVEL CENTER,"I-95, EXIT 57",Baltimore                               ,MD,22,4.759,39.2908816,-76.610759
1618,GO MART FOOD STORE #33,US-33,Ripley                                  ,WV,44,3.499,38.8189684,-81.711885
1621,CIRCLE K #2709337,"I-65, EXIT 262B",Birmingham                              ,AL,615,3.489,33.5206824,-86.8024326
1622,RACEWAY #6973,US-380 & SR-114/SR-101,Bridgeport,TX,630,2.78233333,33.2101155,-97.7547552
1623,SAPP BROS TRAVEL CENTER,"I-70 & I-270, EXIT 278",Commerce City,CO,800,3.389,39.8083196,-104.9338675
1625,PILOT TRAVEL CENTERS #60,"I-26, EXIT 159",Bowman                                  ,SC,42,3.43233333,33.3487699,-80.6828713
1632,PILOT TRAVEL CENTERS #266,"I-10, EXIT 139 & SR-292",Las Cruces                              ,NM,640,3.19066666,32.3140354,-106.779807
1633,7-ELEVEN #36302,"I-35, EXIT 144",Von Ormy,TX,740,3.109,29.289060761172355,-98.64380732043874
1634,PILOT TRAVEL CENTERS #40,"I-94, EXIT 322",Oak Creek,WI,444,3.889,42.898729,-87.9177966
1644,ALLSUPS CONVENIENCE STORE #2414,"I-20, EXIT 235",Roscoe,TX,575,2.929,32.43003286804064,-100.55669317484103
1646,SPEEDWAY #8310,US-6  & US-31,Plymouth,IN,465,3.609,41.3436555,-86.3097278
1647,SPEEDWAY #8305,US-41 & SR-312,Hammond,IN,290,3.76566666,41.6173959,-87.5220108
1653,ROAD RANGER #187,"I-55, EXIT 289",Chicago,IL,520,3.569,41.8755616,-87.6244212
1653,ROAD RANGER #187,"I-55, EXIT 289",Chicago,IL,520,3.599,41.8755616,-87.6244212
1654,CEFCO #3,US-77/US190/SR-36,Cameron,TX,670,2.989,26.1291189,-97.4134281
1661,CHEVRON,"I-20, EXIT 101 & SR-151",Calhoun,LA,590,3.159,32.5134771,-92.36389919999999
1669,BETTY BEAVERS TRUCKSTOP,"I-90, EXIT 28",Fultonville,NY,12,3.149,42.9478357,-74.3699085
1669,BETTY BEAVERS TRUCKSTOP,"I-90, EXIT 28",Fultonville,NY,12,3.189,42.9478357,-74.3699085
1670,Petro Stopping Center #54,"I-44, EXIT 4 & SR-3",Joplin,MO,277,3.449,37.0841838,-94.5133385
1671,LOVES TRAVEL STOP #412,"I-95, EXIT 77",Dunn,NC,205,3.699,35.28563450106626,-78.60839262892945
1672,HANA TRAVEL PLAZA,"I-40,  EXIT 77",Amarillo,TX,585,2.899,35.19561396742317,-101.85981412857859
1699,ALLENS FOOD MART280,US-280/US-231/SR-53/SR-38 & CR-8/CR-34,Sylacauga,AL,615,3.799,33.1731716,-86.2516406
1700,TOPPS FUEL STOPS,US-259/SR-49,Daingerfield,TX,723,3.109,33.0318031,-94.7219895
1720,TOOT N TOTUM #120,US-54 & S WESTERN AVE,Liberal,KS,585,3.01566666,37.0430812,-100.920999
1749,HIGHWAY 96 FUEL STOP,US-96 & SR-62/FM-1004,Buna                                    ,TX,610,3.149,30.4368977,-93.964566
1753,PWI #169,"I-35/US-77, EXIT 359 & CR-1304",Abbott,TX,765,2.899,31.906072466632452,-97.09370991652808
1773,M-46 AUTO TRUCK PLAZA,"US-131, EXIT 120 & SR-46",Howard City,MI,344,3.199,43.395583,-85.467815
1773,M-46 AUTO TRUCK PLAZA,"US-131, EXIT 120 & SR-46",Howard City,MI,344,3.599,43.395583,-85.467815
1773,M-46 AUTO TRUCK PLAZA,"US-131, EXIT 120 & SR-46",Howard City,MI,344,3.099,43.395583,-85.467815
1791,PILOT TRAVEL CENTERS #257,"I-20, EXIT 126 & FM-1788",Midland                                 ,TX,710,3.56566666,31.97142585205946,-102.07505864389235
1807,LOVES TRAVEL STOP #229,I-40 EXIT 96 & SR-207,Panhandle,TX,585,3.314,35.3454847,-101.3804082
1810,KENT KWIK #804,US-83,Perryton,TX,585,2.999,36.3910229,-100.8059035
1829,PILOT TRAVEL CENTERS #96,"SR- 60 & FL TURNPIKE, EXIT 193",Okeechobee,FL,143,3.719,27.3923408,-80.8873655
1829,PILOT TRAVEL CENTER #96,"SR- 60 & FL TURNPIKE, EXIT 193",Okeechobee,FL,143,3.699,27.3923408,-80.8873655
1832,CORNER FUEL CENTER,US-49,Hattiesburg,MS,620,3.299,31.3271189,-89.2903392
1834,PUMP N PANTRY #15,"I-20, EXIT 617 & US-59",Marshall,TX,766,2.899,32.49189264843685,-94.35561830263694
1849,Stripes #42457,US-67/US-277,San Angelo,TX,740,3.244,31.4649685,-100.4405094
1855,EXIT 76 AUTO TRUCK PLAZA,US-131,Byron Center,MI,344,3.499,42.81929435,-85.72791854844013
1858,FLYING J TRAVEL PLAZA #737,"I-10, EXIT 583",San Antonio                             ,TX,740,3.224,29.64057856582796,-98.61764792913513
1859,GO MART FOOD STORE #44,"I-79, EXIT 67 & US-19/SR-4",Sutton,WV,44,3.559,38.6641653,-80.7093066
1860,MR FUEL #278,"I-75/71, EXIT 175 & SR-338",Walton,KY,300,3.019,38.8756194,-84.6102213
1861,PETRO STOPPING CENTER #315,"I-40, EXIT 66",Kingman,AZ,910,3.899,35.2602297,-113.94931449999999
1866,PRI MART FUEL CENTER,"I-94, EXIT 29",Benton Harbor                           ,MI,465,3.799,42.1167065,-86.4541894
1866,PRI MART FUEL CENTER,"I-94, EXIT 29",Benton Harbor                           ,MI,465,3.499,42.1167065,-86.4541894
1873,JDS TRUCKSTOP,"US-12 & US-31, EXIT 3",Niles,MI,465,3.749,42.0289319,-87.8122348
1873,JDS TRUCKSTOP,"US-12 & US-31, EXIT 3",Niles,MI,465,3.849,42.0289319,-87.8122348
1874,CIRCLE K #2744529,US-175,Seagoville,TX,630,2.95066666,32.6447916,-96.5418608
1879,HOLIDAY STATIONSTORE #3552,"I-35, EXIT 81 & SR-70",Lakeville,MN,448,3.549,44.650051,-93.2432791
1888,STRIPES 7FLEET #42449,US-87,Sterling City,TX,710,3.28066666,31.8384837,-100.9850761
1889,TOOT N TOTUM #105,US-54 & US-287,Stratford,TX,585,2.96566666,36.3361403,-102.072119
1893,MIKE MCDONALD TRUCK STOP,"I-20, EXIT 509",Terrell                                 ,TX,637,2.87066666,32.7048865,-96.2841682
1894,CIRCLE K #2741544,"I-37 & SR-72, EXIT 69",Three Rivers,TX,747,3.06566666,28.4647614,-98.1809755
1897,YESWAY #1077,"I-20/US-84, EXIT 278",Tye,TX,575,2.87566666,32.45874876378422,-99.87841622408253
1905,LUCKY TRUCK STOP,US-82,Whitesboro                              ,TX,630,2.88566666,33.6564674,-96.9059847
1909,RALLYSTOP #1,"I-15, EXIT 62",Cedar City,UT,791,3.459,37.6774238,-113.061827
1914,LOVES TRAVEL STOP #792,"I-70, EXIT 160",Green River,UT,835,3.709,40.05076198937114,-109.7329487617412
1921,BELL TRUCK STOP,"I-80, EXIT 146",Park City,UT,835,3.45233333,40.6460921,-111.4979963
1923,SCENIC QUIK STOP,"I-70, EXIT 54 & US-89",Salina,UT,835,3.459,38.957742,-111.859984
1930,CASEYS #3058,"I-35, EXIT 19 & US-160 E",Wellington,KS,570,3.299,37.2675076,-97.3999395
1931,RBS ONE STOP,"I-15, EXIT 320",Woods Cross                             ,UT,835,3.459,40.8716501,-111.892159
1934,CIRCLE K #2723710,"I-77, EXIT 24",Austinville,VA,185,3.24066666,36.851331,-80.91431438638784
1936,QUICK STOP MARKET #36,"I-81, EXIT 10 & US-11",Bristol,VA,185,3.399,36.5959685,-82.1885009
1940,7-ELEVEN #40063,"I-81, EXIT 98 & SR-100",Dublin,VA,65,3.199,37.1046408,-80.6850558
1944,LOVES TRAVEL STOPS #399,"I-77, EXIT 1 & SR-620",Lambsburg,VA,65,3.589,36.5854078,-80.7611817
1944,LOVES TRAVEL STOP #399,"I-77, EXIT 1 & SR-620",Lambsburg,VA,65,3.589,36.5854078,-80.7611817
1950,7-ELEVEN #34515,"I-81, EXIT 205",King George,VA,180,3.399,38.2786312,-77.175356
1951,CIRCLE K #2723713,"I-81, EXIT 205",Staunton,VA,185,3.38566666,38.1495947,-79.072557
1953,FAS MART #3555,"I-64, EXIT 136 & US-15",Gordonsville,VA,180,3.699,38.1347217,-78.1865043
1954,Joe's Kwik Mart #8409,US-58 & CR-645,Suffolk,VA,130,3.03233333,36.7281341,-76.5834683
1956,PILOT TRAVEL CENTER #4642,"I-81, EXIT 291",Toms Brook,VA,60,3.659,38.9464989,-78.4391741
1958,SPEEDWAY #4618,"I-81 & I-77, EXIT 77",Wytheville,VA,185,3.41233333,36.9479966,-81.0869747
1960,MAPLEWOOD IRVING,"I-89, EXIT 7",Montpelier                              ,VT,170,3.699,44.2602244,-72.5750364
1962,SUPER QUIK,"I-64, EXIT 172 & SR-1/SR-7",Grayson,KY,255,3.799,38.343881922683835,-82.94039765538302
1976,One9 #963,"I-90, EXIT 276",Spokane                                 ,WA,970,3.989,47.6571934,-117.42351
1976,One9 #963,"I-90, EXIT 276",Spokane                                 ,WA,970,3.959,47.6571934,-117.42351
1977,GEE CEES TRUCK STOP,"I-5, EXIT 57",Toledo,WA,977,3.839,46.4401007,-122.8467555
1983,KWIK TRIP #427,"US-53, EXIT 110 & SR-40",Bloomer,WI,295,3.41566666,45.1015011,-91.4887197
1985,Camp Douglas BP,"I-90 & I-94, EXIT 55",Camp Douglas                            ,WI,420,3.154,43.9193145,-90.2681006
2000,RIVER CITY TRAVEL PLAZA,US-41,Marinette,WI,360,3.399,45.3834983,-88.0409574
2002,KWIK TRIP #222,US-53/US-2,Superior,WI,334,3.339,46.7207737,-92.1040796
2009,KWIK TRIP #139,"I-43, EXIT 120 & CR-V/CR-OK",Sheboygan,WI,444,3.29066666,43.7128967,-87.9370433
2020,BFS FOODS #72,"I-68, EXIT 23 & SR-26",Bruceton Mills,WV,165,3.499,39.6586918,-79.6411594
2021,GO MART FOOD STORE #59,"I-64, EXIT 15 & US-60",Huntington,WV,255,3.499,38.4192496,-82.445154
2022,GO MART FOOD STORE #86,"I-79, EXIT 40 & SR-16",Ivydale                                 ,WV,44,3.599,38.310097,-81.7045688
2029,HOMAX SERVICE,"I-25, EXIT 188",Mills                                   ,WY,790,3.169,42.841927,-106.367935
2030,GHOST TOWN FUEL STOP,US-26/US-20,Casper,WY,790,3.429,42.8501191,-106.325138
2034,TA CHEYENNE TRAVEL CENTER,"I-80, EXIT 377 & SR-217/CR-140",Cheyenne,WY,795,3.699,41.12255839323299,-104.80681547876131
2040,Fast Stop Travel Centers #1133,"I-25, EXIT 126 & US-18/20",Douglas,WY,790,3.499,42.7595708,-105.382624
2041,PINE BLUFFS SINCLAIR,"I-80, EXIT 401 & US-30",Pine Bluffs,WY,795,3.699,41.179678,-104.0667789
2044,One9 #1251,"I-80, EXIT 173",Wamsutter,WY,795,3.499,41.672931,-107.979217
2074,STRIPES #40522,"I-10, EXIT 550",San Antonio,TX,740,3.059,29.64057856582796,-98.61764792913513
2076,ALLSUPS CONVENIENCE STORE #2159,US-283 BUS/US-277 BUS & SR-422,Seymour,TX,770,3.299,33.5942438,-99.2603073
2078,ALLSUPS CONVENIENCE STORE #2366,US-84 & CR-3300,Slaton                                  ,TX,700,2.969,33.4343676,-101.643524
2084,Main Street Market #112,"I-20, EXIT 73",Wickett,TX,710,2.879,31.568947,-103.0037
2087,LWS TRUCK STOP,SR-30,Logan,UT,835,3.42566666,41.7313063,-111.834914
2088,FLYING J TRAVEL PLAZA #773,"I-70, EXIT 40",Richfield                               ,UT,835,3.699,38.7724674,-112.084094
2089,FLYING J TRAVEL PLAZA #774,"I-84, EXIT 7",Snowville                               ,UT,835,3.749,41.9654058,-112.710343
2115,KWIK TRIP #838,SR-23/SR-33,Reedsburg,WI,420,3.194,43.5325234,-90.0080595
2125,BIG D #44,"I-80, EXIT 311 & SR-130",Laramie,WY,795,3.249,41.09974866250282,-105.14365592655454
2144,Mountain View Truck Stop,US-15,Thurmont,MD,60,4.099,39.6236095,-77.4115401
2152,SPEEDWAY #4709,"I-90, EXIT 102",Fairmont,MN,425,3.299,43.6521775,-94.4610832
2167,PILOT TRAVEL CENTERS #134,"I-94, EXIT 171 (CR 75)",Saint Cloud,MN,451,3.28733333,45.48794605,-94.1426549302056
2182,PILOT TRAVEL CENTER #4649,"I-64 & I-81, EXIT 205",Raphine,VA,185,3.659,37.9373548,-79.2328102
2192,GO MART FOOD STORE #51,US-19/SR-129,Mount Nebo                              ,WV,44,3.599,39.6023047,-79.7078303
2194,A AND A TRUCKSTOP,US-35 & CR-41,Jackson,OH,315,3.799,39.0131871,-82.6089043
2196,Certified Oil #400410,I-76 EXIT 43,Ravenna,OH,249,3.31566666,41.157557,-81.242047
2204,NATURAL BRIDGE SHELL,US-278 & SR-5,Lynn,AL,615,3.68233333,33.963011024954724,-87.43831143051655
2209,Roadrunner #471,"I-40/US-65, EXIT 142 & SR-365",North Little Rock,AR,695,3.03233333,34.769536,-92.2670941
2219,PILOT TRAVEL CENTER #66,"I-85, EXIT 129",Braselton,GA,16,3.27233333,34.1092735,-83.7626729
2219,PILOT TRAVEL CENTERS #66,"I-85, EXIT 129",Braselton,GA,16,3.27233333,34.1092735,-83.7626729
2223,PO JOS GAS N GO,"I-16 SR-404, EXIT 116 & US-301/SR-73",Register,GA,195,3.23233333,32.3671237,-81.8840039
2227,SPEEDWAY #7448,SR-59,Naperville,IL,293,3.299,41.7728699,-88.1479278
2227,SPEEDWAY #7448,SR-59,Naperville,IL,293,3.359,41.7728699,-88.1479278
2231,QUIKTRIP #605,"I-270, EXIT 33",Saint Louis,MO,540,2.899,38.6280278,-90.1910154
2255,S&G #36,"I-280, EXIT 2 & SR-795",Millbury,OH,550,3.49233333,41.5659599,-83.4248634
2267,Circle K #4703917,"I-65, EXIT 112 & SR-25",Cross Plains,TN,460,2.949,36.5486597,-86.6961102
2283,CIRCLE K #2707321,SR-60,Bartow,FL,225,3.52233333,27.8963791,-81.8431567
2287,SAC SHOP #511,"I-76/I-70, EXIT 146 & I-99/US-220 EXIT 1",Bedford,PA,14,4.099,40.0271453,-78.5237447
2306,SCOTCHMAN #3894,"I-77, EXIT 73 & SR-901",Rock Hill,SC,210,3.079,34.92585559155358,-81.04147290210503
2310,MAPCO #3686,"I-24, EXIT 175",Chattanooga,TN,285,2.889,35.0457219,-85.3094883
2311,SHELL,"I-24 & EPPS MILL RD, EXIT 89",Christiana                              ,TN,460,3.13233333,35.7100099,-86.3993653
2331,PINNERS POINT,SR-135,Portsmouth,VA,130,3.499,36.8320081,-76.297699
2336,FLYING J TRAVEL PLAZA #754,"I-77 & I-81, EXIT 77",Wytheville,VA,185,3.549,36.9479966,-81.0869747
2340,RSTORE #4478,SR-8 & SR-13,Prentice,WI,395,3.039,45.5459408,-90.2875802
2557,PWI #106,"I-30, EXIT 77B",Royse City,TX,630,2.899,32.97238903627689,-96.32341190228068
2602,PILOT TRAVEL CENTERS #9,"I-75, EXIT 36",Franklin,OH,407,3.35233333,39.5589474,-84.3041074
2623,TA JANESVILLE TRAVEL CENTER,"I-90/I-39, EXIT 171B & US-14",Janesville,WI,420,3.299,42.6829765,-89.0226793
2626,WEST END SINCLAIR,"I-80, EXIT 211",Rawlins,WY,838,3.319,41.7907878,-107.239176
2629,PILOT TRAVEL CENTERS #253,"I-295 & NJ TRNPK,  EXIT 2B",Penns Grove,NJ,243,3.989,39.7295581,-75.4679734
2635,FLYING J #584,"I-5, EXIT 278",Aurora,OR,935,3.859,45.2310497,-122.755035
2638,PIT STOP TRAVEL CENTER,US-789,Riverton                                ,WY,790,4.399,43.0247245,-108.380727
2640,LITTLE NASHVILLE,"I-64, EXIT 50 & SR-127",Nashville,IL,540,3.399,38.3434906,-89.3809783
2640,LITTLE NASHVILLE,"I-64, EXIT 50 & SR-127",Nashville,IL,540,3.299,38.3434906,-89.3809783
2644,FREDERICKS TRAVEL CENTER,"I-25/US-87, EXIT 235 & SR-52",Erie,CO,800,3.499,40.039710000866144,-104.98211773674616
2756,PAR MAR FOOD STORE #89,"I-77/SR-2, EXIT 170 & SR-14 E",Mineral Wells,WV,430,3.499,39.1904082,-81.5320773
2761,PONY EXPRESS SERVICE CENTER,US-36 & SR-148,Hanover,KS,316,2.95566666,39.893892,-96.87947
2764,LOVES TRAVEL STOP #046,US-64/54 & SR-94,Hooker,OK,585,3.56233333,36.8609639,-101.214077
2765,LOVES TRAVEL STOP #023,US-50 & US-287,Lamar,CO,525,3.46233333,38.0872306,-102.620749
2772,PILOT TRAVEL CENTERS #29,"I- 80, EXIT 144; I-69, EXIT 357",Fremont                                 ,IN,465,3.899,41.7308834,-84.9327395
2772,PILOT TRAVEL CENTER #29,"I- 80, EXIT 144; I-69, EXIT 357",Fremont                                 ,IN,465,3.899,41.7308834,-84.9327395
2779,Stinker #121,I-84 & EXIT 208,Heyburn,ID,787,3.56066666,42.5585202,-113.763904
2788,JIFFY MART #451,"I-91, EXIT 17 & SR-302",Wells River,VT,39,3.569,44.1542997,-72.0471635
2805,Fast Stop Travel Centers #1145,"I-15,  EXIT 31",Downey,ID,825,3.799,42.4285297,-112.124407
2807,SUDDEN SERVICE #25,"I-24, EXIT 11",Clarksville,TN,460,3.30733333,36.5277607,-87.3588703
2811,KWIK FILL #22,"I-90, EXIT 40 & SR-34/SR-31",Weedsport,NY,220,3.899,43.048677,-76.5627197
2817,Chevron #382354,"I-5/US-12, EXIT 72",Chehalis,WA,977,4.299,46.6599653,-122.963432
2848,TA TONOPAH TRAVEL CENTER,"I-10, EXIT 103",Tonopah,AZ,930,3.939,33.514691799999994,-112.90736443166512
2851,SPEEDWAY #2958,"I-8, EXIT 12",Yuma,AZ,900,3.479,32.659646300000006,-114.36434519043962
2862,TA TALLULAH TRAVEL CENTER,"I-20, EXIT 171 & US-65",Tallulah,LA,760,3.209,32.4084539,-91.1869112
2864,KUM & GO #0493,I-49 BUS/SR-59,Neosho,MO,535,3.059,36.8665201,-94.3701651
2875,CIRCLE K #2744138,"I-25, EXIT 101 & US-50/SR-47",Pueblo,CO,803,3.399,38.338013076635725,-104.62021421946402
2883,PILOT TRAVEL CENTER #293,"I-75, EXIT 341 & CR-484",Ocala                                   ,FL,140,3.41233333,29.1871986,-82.1400923
2883,PILOT TRAVEL CENTERS #293,"I-75, EXIT 341 & CR-484",Ocala                                   ,FL,140,3.359,29.1871986,-82.1400923
2885,SP Truckstop & Travel Center,US-84/SR-38,Bainbridge,GA,20,3.599,30.9038252,-84.5754768
2889,MOULTON COWBOYS,SR-157,Moulton                                 ,AL,615,3.099,34.4817816,-87.2919449
2891,PETRO STOPPING CENTER #338,"I-80, EXIT 21",Sparks,NV,966,3.949,39.5404679,-119.7487235
2895,EAGLE TRUCK STOP,I-77 EXIT 81,New Philadelphia,OH,249,3.31566666,40.4897871,-81.4456706
2896,NORTH LEWISTON DYNAMART,US-12 & SR 128,Lewiston,ID,970,3.669,46.431462310618684,-117.05725589842984
2897,GAS N GO #15,"I-80, EXIT 41",Lyman,WY,827,3.46566666,41.327367,-110.292835
2910,FLYING J TRAVEL PLAZA #685,"I-29 & I- 94, EXIT 349",Fargo                                   ,ND,341,3.569,46.84722494027475,-96.85420767290853
2913,ONE9#226,"I-40, EXIT 417 & SR-92",Dandridge,TN,405,3.259,36.0153693,-83.4148895
2915,TP TRUCK STOP,"I-15, EXIT 80",Fort Hall                               ,ID,825,3.519,43.0150153,-112.44668673083797
2917,GOLDYS TRUCK PLAZA,US-29,Rustburg,VA,185,3.519,37.2754135,-79.10905692550143
2922,LOVES TRAVEL STOP #210,"I-40, EXIT 158",Albuquerque,NM,580,3.52066666,35.0841034,-106.650985
2923,LOVES TRAVEL STOP #435,"I-95, EXIT 104 & SR-207",Ruther Glen,VA,180,3.611,37.9287494,-77.4558151
2923,LOVES TRAVEL STOPS #435,"I-95, EXIT 104 & SR-207",Ruther Glen,VA,180,3.589,37.9287494,-77.4558151
2924,HWY 190 FUEL STOP,US-190,Jasper                                  ,TX,610,3.13233333,30.7485258,-94.000884
2926,EXIT 77 TRAVEL PLAZA,"I-81, EXIT 77 & SR-39",Harrisburg,PA,70,3.499,40.2663107,-76.8861122
2929,TA EXPRESS STEELE,"I-94, EXIT 200 & SR- 3",Steele,ND,390,3.599,47.4413054,-97.7450372
2935,CIRCLE K #2726163,"I-295, EXIT 22",Jacksonville,FL,75,3.299,30.3321838,-81.655651
2937,FLYING J TRAVEL PLAZA #664,"I-75, EXIT 171",Walton,KY,300,3.08566666,38.8756194,-84.6102213
2956,PILOT TRAVEL CENTERS #275,"I-85, EXIT 39 I-77, EXIT 13",Charlotte,NC,46,3.55233333,35.2272086,-80.8430827
2963,SUPERPUMPER #26,"I-94, EXIT 258 & US-281",Jamestown,ND,390,3.629,46.910544,-98.708436
2967,PETRO STOPPING CENTER #317,"I-57, EXIT 71",Perrysburg,OH,550,3.78566666,41.5571178,-83.6279321
2968,E-Z MART #4460,"I-20,  EXIT 124",Monroe,LA,719,3.129,32.5025471,-92.116219
2977,DISCOUNT FUEL,"I-90, EXIT 150 & SR-73",Kadoka,SD,506,3.229,43.833882,-101.509866
2982,CIRCLE K #2723726,"I-59/I-20, EXIT 52 & US-11/US-43/SR-7",Knoxville,AL,705,3.089,33.5917715,-85.8971885
3003,CHEVRON,"I-20, EXIT 186",Delta                                   ,LA,760,2.994,32.3274069,-90.9250828
3008,BUSY BEE,"I-10, EXIT 283 & US-129",Live Oak,FL,10,3.779,30.2961892,-82.9842885
3022,TA GREENCASTLE TRAVEL CENTER,"I-81, EXIT 5",Greencastle,PA,70,3.959,39.790371,-77.7277714
3030,Mr Ts Riverside,US-412,Cardwell                                ,MO,435,3.199,36.0495441,-90.2931492
3064,PORTS TO PLAINS TRAVEL PLAZA,US-50 & US-287,Lamar,CO,800,3.399,38.0872306,-102.620749
3086,SPEEDWAY #4638,US-29,Madison Heights,VA,185,3.49566666,37.446310499999996,-79.09356478723987
3093,RSTORE #4488,US-51,Merrill,WI,395,3.24066666,45.180522,-89.683459
3096,HOBO PANTRY #6,US-431/SR-210,Dothan,AL,20,3.959,31.2237285,-85.3934375
3118,MOBIL,"I-87, EXIT 42 & US-11",Champlain,NY,39,3.799,44.9835035,-73.3652104
3128,TA ATLANTA SOUTH TRAVEL CENTER,"I-75, EXIT 201 & SR-36",Jackson,GA,18,3.334,33.2710004597493,-83.98451314618218
3138,TA EXPRESS #6264,"I-70, EXIT 26 & US-50",Grand Junction,CO,800,4.049,39.1149121157774,-108.57467780287196
3139,CHEROKEE TRAVEL MART,"I-40,  EXIT 108",Calumet                                 ,OK,483,3.10566666,35.6008883,-98.1188072
3148,YESWAY #1038,US-60 & SR-86,Neosho,MO,307,3.059,36.8665201,-94.3701651
3155,QUIK MART #18,US-72/SR-157,Tuscumbia                               ,AL,615,3.00733333,34.7312005,-87.70253
3163,QUIKTRIP #71,"I-44, EXIT 238",Tulsa,OK,560,3.039,36.1563122,-95.9927516
3164,QUIKTRIP #102,"I-44, EXIT 222A",Tulsa,OK,560,3.039,36.1563122,-95.9927516
3165,LOVES TRAVEL STOP #213,"I-35, EXIT 211",Tonkawa,OK,500,3.584,36.6783679,-97.3100442
3167,JASPER FOOD MART,US-78,Jasper,AL,615,3.229,33.8312185,-87.2775053
3171,One9 #265,"I-40, EXIT 287 & SR-136",Cookeville,TN,405,3.084,36.137877351494225,-85.51456146623512
3176,BP,US-6 & SR-15,New Paris                               ,IN,365,3.65733333,41.504546500000004,-85.82410851437608
3178,ERNIES FUEL STOP #1605,SR-167,Kent,WA,977,4.599,47.3826903,-122.2270272
3179,MR FUEL #1020,"I-80 & I-94, EXIT 15B",Lake Station,IN,365,3.56566666,41.5750369,-87.2389246
3191,BUSY CORNER TRUCK STOP AND MARKET,"I-24, EXIT 105 & US-41/SR-2",Manchester,TN,460,3.049,35.4832001,-86.0887296
3205,CROSSROADS TRUCK STOP STATION,"I-29 & SR 34, MM 109",Colman                                  ,SD,530,3.159,43.982472,-96.814497
3206,PERHAM OASIS,US-10 & SR-78,Perham,MN,250,3.499,46.5944042,-95.5725415
3215,SHELL TRUCKSTOP,"I-4, EXIT 44",Polk City,FL,225,3.449,28.1825147,-81.8239676
3216,MAXS #124,"I-24, EXIT 86 & US-41",Oak Grove,KY,460,3.04233333,36.6650471,-87.4427878
3221,Pilot #1440,"US-67, EXIT 55 & US-64/US-167 & SR-367",Bald Knob,AR,695,3.399,35.3098066,-91.5679114
3221,Southern Travel Plaza,"US-67, EXIT 55 & US-64/US-167 & SR-367",Bald Knob,AR,695,3.391,35.3098066,-91.5679114
3222,POMPANO TRUCK STOP,"I-95, EXIT 36B",Pompano Beach,FL,95,3.759,26.2378597,-80.1247667
3226,ONE9 #245,"I-81, EXIT 77 & SR-39",Harrisburg,PA,70,3.609,40.2663107,-76.8861122
3227,ONE9 MR FUEL #64,"I-26 & US-17, EXIT 199",Summerville,SC,42,3.219,33.0186699,-80.1762704
3227,MR FUEL DBA ONE9 #64,"I-26 & US-17, EXIT 199",Summerville,SC,42,3.219,33.0186699,-80.1762704
3230,STRIPES #40815,US-281 & US-285,Falfurrias,TX,625,3.299,27.2247328,-98.1462397
3264,TA WEST MEMPHIS TRAVEL CENTER,"I-40/US-63, EXIT 260 & SR-149",Earle,AR,435,3.36733333,35.2707245,-90.4656194
3280,OUTPOST TRUCK STOP,US-85 & US-18/US-20,Lusk,WY,790,3.689,42.762467,-104.452175
3281,AMERICAN TRUCK PLAZA,I-80 EXIT 215 & SR-254,Milton,PA,138,3.799,41.0177269,-76.853084
3284,CASEYS #4390,"I-49/US-71, EXIT 77 & US-160",Lamar,MO,416,3.199,37.4950527,-94.2768736
3297,SAPP BROS TRAVEL CENTER,"I-80, EXIT 370",Cheyenne,WY,795,3.70066666,41.12255839323299,-104.80681547876131
3316,TRUCKOMAT OF N LITTLE ROCK,"I-40, EXIT 161 & SR-391",North Little Rock                       ,AR,695,3.249,34.769536,-92.2670941
3326,MIRABITO #61,"I-81, EXIT 32",Central Square,NY,12,4.299,43.2870009,-76.1463601
3330,TA # 211 GREENLAND TRAVEL CENTER,"I-95, EXIT 3A & US-101",Greenland,NH,34,3.759,43.0361995,-70.8328322
3349,QUEEN CITY TRUCK STOP,"I-20 & I-59, EXIT150",Meridian,MS,705,2.939,32.3643098,-88.703656
3383,E-Express at Central Truck Stop,"I-35, EXIT 137",Oklahoma City,OK,483,2.879,35.38967023475542,-97.49251564923227
3386,LONGMONT TRUCK STOP,"I-25/US-87, EXIT 240 & SR-119",Longmont,CO,800,3.239,40.1672117,-105.101928
3401,POPS Mart #333,"I-77, EXIT 48 & SR-200",Winnsboro,SC,46,3.09066666,34.3807012,-81.0864776
3413,COUNTRY GIRL TRUCK STOP,US-167 & SR-156,Winnfield,LA,590,3.319,31.925228,-92.63994
3415,JAYS EL CHEAPO FUEL STOP,"I-16, EXIT 104",Metter                                  ,GA,195,3.249,32.397118,-82.0601196
3418,Par Mar Store #164,"I-79, EXIT 105 & CR-7",Jane Lew,WV,165,3.999,39.1100763,-80.4065446
3421,ERNIES TRUCK STOP,"I-5, EXIT 142",Federal Way,WA,977,4.599,47.313494,-122.33931
3422,PWI #167,"I-10, EXIT 601",Seguin,TX,740,2.889,29.601448599299967,-97.9060054415311
3427,JOHNNYS MARKET,"I-69, EXIT 357",Fremont,IN,465,3.699,41.7308834,-84.9327395
3432,PILOT TRAVEL CENTER #34,"I-65, EXIT 201 & US-231",Remington,IN,365,3.709,40.7608729,-87.1508522
3432,PILOT TRAVEL CENTERS #34,"I-65, EXIT 201 & US-231",Remington,IN,365,3.659,40.7608729,-87.1508522
3435,PWI #168,"I-35, EXIT 266 & SR-195",Georgetown,TX,740,2.799,30.650494222134643,-97.67985793591309
3444,Acme Truck Stop,US-441/SR-500,Orlando,FL,140,3.449,28.5421109,-81.3790304
3460,CHROME TRUCK STOP,US-18 & US-169,Algona,IA,433,3.499,43.0699663,-94.233019
3464,BOISE PETROLEUM LLC,"I-84,  EXIT 71",Boise,ID,785,3.379,43.6166163,-116.200886
3471,MR FUEL DBA ONE9 #72,"I-16, EXIT 160",Savannah,GA,195,3.13233333,32.0790074,-81.0921335
3471,ONE9 MR FUEL #72,"I-16, EXIT 160",Savannah,GA,195,3.119,32.0790074,-81.0921335
3475,PILOT TRAVEL CENTERS #56,"I-85, EXIT 63",Kannapolis,NC,46,3.499,35.4979605,-80.6240008
3477,CIRCLE K #4707404,"I-91, EXIT 7",Springfield,VT,170,3.699,43.2988213,-72.4817747
3479,FAST MARKET #4550,"I-75/SR-401, EXIT 136 & US-341",Perry,GA,85,3.099,32.4586695,-83.7319658
3493,CIRCLE K #2723675,"I-75, EXIT 290 & SR-20",Cartersville,GA,18,3.08566666,34.1652304,-84.7997613
3519,PILOT TRAVEL CENTERS #431,"I-10, EXIT 873",Orange,TX,610,3.309,30.1228634,-93.9041169
3522,SUNMART #308,US-59,Livingston                              ,TX,610,2.859,30.711029,-94.9329898
3526,JOE STOP 99,"I-75, EXIT 99 & SR-119",Anna,OH,411,3.064,40.3948773,-84.1729332
3530,SPARKYS ONE STOP #22,"I-35, EXIT 111B & US-30",Jefferson,IA,320,3.23233333,41.0131342,-91.9718642
3536,PETRO STOPPING CENTER #307,I-40 EAST & S LAKESIDE Dr,Amarillo,TX,585,3.279,35.20729,-101.8371192
3539,Bigs 211,"I-10, EXIT 620 & SR-123",Seguin,TX,740,3.099,29.601448599299967,-97.9060054415311
3545,STOCKMENS TRUCK PLAZA,"I-494, EXIT 64A",South Saint Paul,MN,450,3.499,44.8906694,-93.0372808
3580,STINKER I 80 TRAVEL PLAZA,"I-80, EXIT 221 & SR-76",Sinclair,WY,838,3.759,41.7791754,-107.1162507
3585,CHEVRON,"I-80, EXIT 129",Lovelock,NV,966,3.499,40.1801273,-118.4747268
3588,BINGO TRUCK STOP,"I-10, EXIT 829 & SR-124",Winnie                                  ,TX,610,2.999,29.84645282105619,-94.37092102709632
3592,TA BRIDGER TRAVEL CENTER #188,"I-80, EXIT 30 & CR-202",Fort Bridger,WY,835,3.71566666,41.3167955,-110.39248516065626
3593,TA Parowan Travel Center,"I-15, EXIT 78",Parowan,UT,910,3.70566666,37.8421975,-112.8279996
3605,SPEEDYS #6,"I-35, EXIT 33",Saint Joseph,MO,400,3.169,39.7686055,-94.8466322
3608,FUEL MART #787,"I-57, EXIT 212 & US-36",Tuscola,IL,280,3.199,39.7998585,-88.2884552
3614,PILOT TRAVEL CENTERS #35,"I-80/90, EXIT 72 & US-31",South Bend                              ,IN,465,3.799,41.6833813,-86.2500066
3614,PILOT TRAVEL CENTER #35,"I-80/90, EXIT 72 & US-31",South Bend                              ,IN,465,3.799,41.6833813,-86.2500066
3616,PILOT TRAVEL CENTERS #15,"I-75, EXIT 210",Toledo,OH,550,3.77233333,41.6529143,-83.5378173
3619,ROAD RANGER #141,"I-70, EXIT 23",Brazil,IN,375,3.659,39.523652,-87.1250154
3620,One9 #16,"I-71 & US-68, EXIT 50",Wilmington                              ,OH,315,3.14233333,39.4453393,-83.8285375
3645,SNOW SHOE TRAVEL PLAZA,"I-80, EXIT 147 & SR-144",Snow Shoe,PA,14,3.469,41.0308914,-77.9494489
3678,TIMES MARKET #299,US-281 BUS,Alice,TX,625,3.099,27.7522487,-98.0697249
3688,SPEEDWAY #2314,"I-94, EXIT 243 & SR-29",New Baltimore,MI,342,3.559,42.4461934,-73.7884568
3688,SPEEDWAY #2314,"I-94, EXIT 243 & SR-29",New Baltimore,MI,342,3.579,42.4461934,-73.7884568
3692,CHARLOTTE TRAVEL PLAZA,"I-77,  EXIT 16B",Charlotte,NC,46,3.53233333,35.2272086,-80.8430827
3699,WARREN TRAVEL PLAZA,"I-69, EXIT 278 & SR-5",Warren,IN,375,3.399,40.3424546,-87.3564255
3702,BEARS DEN TRADING POST #101,ST 37 11 MI E OF MASSENA,Hogansburg                              ,NY,39,3.649,44.9739364,-74.6632416
3707,SPEEDWAY #4704,"I-90, EXIT 154",Albert Lea,MN,425,3.299,43.6480127,-93.3682656
3718,SPEEDWAY #4706,"I-90, EXIT 265",Chamberlain,SD,455,3.299,43.810817,-99.330178
3719,KEYSTONE TRUCK STOP,US-22 & SR-164,Loretto,PA,14,3.999,40.5029161,-78.6314019
3725,GENEVA TRUCK STOP,"I-79, EXIT 35/141",Cochranton                              ,PA,240,3.81566666,41.5200534,-80.0483929
3728,PLAZA 23 TRUCK STOP,"I-787, EXIT 2",Albany,NY,12,3.799,42.6511674,-73.754968
3737,JORDAN'S KWIK STOP #70,US-49,West Helena                             ,AR,435,3.399,34.5506573,-90.6417741
3745,PILOT TRAVEL CENTER #906-TOWN PUMP,"I-90, EXIT 408 & SR-78",Columbus,MT,780,3.58066666,45.6366114,-109.252154
3759,EXXON,US-67 & SR-18,Newport,AR,695,4.13233333,35.6061746,-91.2833177
3767,SIMMONS TRAVEL CENTER,"I-95, EXIT 8 & US-301",Emporia,VA,180,3.099,36.6937606,-77.5357141
3772,Brake Time Corner Market,"I-25, EXIT 240",Burlington                              ,CO,800,3.499,39.3046827,-102.2680065
3774,SINCLAIR,"I-70, EXIT 438",Burlington                              ,CO,796,3.889,39.3046827,-102.2680065
3781,REATTA TRAVEL STOP,"I-76, EXIT 149 & SR-55/CR-81",Crook,CO,475,3.38233333,40.8578024,-102.8011867
3783,CIRCLE K #2744095,"I-25, EXIT 215",Denver,CO,800,3.299,39.7392364,-104.984862
3794,SPEEDWAY #4701,"I-90, EXIT 73",Jackson,MN,425,3.299,43.670011,-95.1500626
3817,FAST MARKET,"I-25, EXIT 158",Colorado Springs,CO,803,3.159,38.8339578,-104.825348
3843,ONCUE EXPRESS #61,"I-35, EXIT 185 & US-77",Perry,OK,500,3.21566666,36.2907352,-97.288396
3868,SHORE STOP #279,US-13,Greenwood,DE,194,3.239,38.8070579,-75.5913153
3868,SHORE STOP #279,US-13,Greenwood,DE,194,3.259,38.8070579,-75.5913153
3888,Fics Plaza,"I-90, EXIT 184",Deer Lodge                              ,MT,816,3.519,46.0753795,-113.089332
3889,CIRCLE K #2701686,"I-75, EXIT 220",Bradenton,FL,225,3.439,27.4989278,-82.5748194
3907,SUNOCO,US-46 & SR-93,Palisades Park,NJ,105,3.279,40.8481556,-73.997639
3908,SEMINOLE TRUCK STOP,"I-75, EXIT 354",Fort Lauderdale,FL,95,3.699,26.1223084,-80.1433786
3927,MICCOSUKEE SERVICE PLAZA,"I-75, EXIT 49 & SR-84",Fort Lauderdale                         ,FL,95,3.66566666,26.1223084,-80.1433786
3936,Uncle Petes Truck  Stop,"I-40, EXIT 239 & US-70/SR-26",Lebanon,TN,460,2.989,36.2079779,-86.2910945
3946,Fast Lane,US-24 & US-63,Moberly,MO,310,3.469,39.4201137,-92.4364298
3949,SUNSTOP #337,"I-10/SR-8, EXIT 303 & US-441",Lake City,FL,75,3.699,30.1894252,-82.6394803
3956,CIRCLE K #2707451,US-27/SR-25 & SR-70,Lake Placid,FL,225,3.399,27.2930999,-81.3628502
3964,SPEEDWAY #6604,"I-94, EXIT 66",Mattawan,MI,465,3.489,42.2094839,-85.784453
3964,SPEEDWAY #6604,"I-94, EXIT 66",Mattawan,MI,465,3.499,42.2094839,-85.784453
3970,EXXON - Pilot #1293,"I-30, EXIT 61",Garland,TX,630,2.84233333,32.83410392211075,-96.61151783418012
3973,LOVES TRAVEL STOP #205,"I-35 & I-44, EXIT 137",Oklahoma City,OK,483,3.319,35.38967023475542,-97.49251564923227
3974,LOVES TRAVEL STOP #201,I-40 EXIT 41,Elk City,OK,483,3.12566666,35.4140081,-99.4138648
3975,SUNSTOP #334,"I-10, EXIT 335 & SR-121",Macclenny,FL,75,3.459,30.2821807,-82.1220569
3979,PETRO GARY 369,"I-80 & I-94, EXIT 9",Gary,IN,365,3.83066666,41.6020962,-87.3370646
4006,MISSILE MART #1,US-167 & SR-7,El Dorado,AR,635,3.499,33.2115087,-92.6650144
4008,BALDWIN TRAVEL PLAZA,"I-94, EXIT 19 & US HWY 63",Baldwin                                 ,WI,295,3.503,44.9667546,-92.3732461
4025,BP,"I-85, EXIT 21  & US-178",Anderson,SC,30,2.909,34.5258335,-82.652962
4035,PILOT TRAVEL CENTER #430,"I-40,  EXIT 84",Russellville,AR,695,3.375,35.283708262476324,-93.08781788850709
4035,PILOT TRAVEL CENTERS #430,"I-40,  EXIT 84",Russellville,AR,695,3.399,35.283708262476324,-93.08781788850709
4062,DUDLEYS TRUCK STOP RESTAURANT,US-220,Rocky Mount,VA,185,3.299,36.9962007,-79.8909474
4063,STUCKEY'S,"I-59, EXIT 67 & US-49",Hattiesburg,MS,620,2.999,31.3271189,-89.2903392
4080,SHELL DBA PILOT DEALER #874,US-41,Miami,FL,176,3.699,25.7741728,-80.19362
4080,PILOT TRAVEL CENTERS #874,US-41,Miami,FL,176,3.699,25.7741728,-80.19362
4101,E-Z MART #4411,HIGHWAY 69 & COBBLESTONE DR,Pryor,OK,560,3.099,36.3084275,-95.3169136
4113,ASAP GENERAL STORE #330,US-412/SR-15,Enid,OK,500,3.08233333,36.3967623,-97.8791341
4115,QUIKTRIP #707,"I-85 , EXIT 96",Atlanta,GA,18,3.34066666,33.7489924,-84.3902644
4119,JET FOOD STORE #82,US-441 & CR-13,Douglas,GA,10,3.44066666,33.6995565,-84.7622973
4156,PETRO STOPPING CENTER #305,"I-10, EXIT 582",San Antonio,TX,740,3.20733333,29.64057856582796,-98.61764792913513
4161,EL CHEAPO,I-95 & EXIT 76,Midway                                  ,GA,195,3.52566666,31.805769,-81.4306642
4164,CIRCLE K #2723897,"I-75, EXIT 138",Thomasville,GA,20,3.23566666,30.8365815,-83.9787808
4169,TA KINGMAN TRAVEL CENTER,"I-40, EXIT 48 & US-93",Kingman,AZ,910,3.899,35.2602297,-113.94931449999999
4171,PETRO SERVE USA #11,US-2 & US-71,Bemidji,MN,355,3.499,47.4785418,-94.8907869
4172,FLYING J TRAVEL PLAZA #639,"I-90, EXIT 2",Post Falls,ID,970,3.76233333,47.7110106,-116.9480877
4179,CIRCLE K #2705352,"I-95/SR-405, EXIT 109 & SR-30/SR-21",Port Wentworth                          ,GA,195,3.099,32.149092,-81.1631681
4187,FLYING J TRAVEL PLAZA #632,"I-75, EXIT 320",Resaca,GA,285,3.29566666,34.5803628,-84.9432765
4193,TIGER MART #63,"I-20, EXIT 454",Grand Prairie,TX,630,3.599,32.671705270735835,-96.98596236798511
4199,PWI #574,"I-70, EXIT 193/US-40",Bunker Hill,KS,357,2.959,38.8758445,-98.7039655
4204,PILOT TRAVEL CENTERS #415,"I-59, EXIT 4",Rising Fawn,GA,285,3.859,34.7600791,-85.531076
4204,PILOT TRAVEL CENTER #415,"I-59, EXIT 4",Rising Fawn,GA,285,3.819,34.7600791,-85.531076
4211,FLYING J #513,"I-15, EXIT 1",Jean,NV,910,3.73233333,35.7790078,-115.324314
4220,KENNETT TRUCK STOP,"I-275, EXIT 16",Lawrenceburg                            ,IN,300,3.424,39.090891,-84.8499504
4222,Circle K #4703906,"I-24, EXIT 24 & SR-49",Pleasant View,TN,460,2.899,36.3942164,-87.0366685
4223,TA PEMBROKE TRAVEL CENTER,"I-90, EXIT 48A",Corfu,NY,38,3.939,42.9600595,-78.4055767
4223,TA PEMBROKE TRAVEL CENTER,"I-90, EXIT 48A",Corfu,NY,38,3.889,42.9600595,-78.4055767
4223,TA PEMBROKE TRAVEL CENTER,"I-90, EXIT 48A",Corfu,NY,38,3.829,42.9600595,-78.4055767
4223,TA PEMBROKE TRAVEL CENTER,"I-90, EXIT 48A",Corfu,NY,38,3.839,42.9600595,-78.4055767
4227,LOVES TRAVEL STOP #203,"I-40, EXIT 140",Oklahoma City,OK,483,3.35566666,35.45971329060396,-97.587518758835
4233,QUIKTRIP #7220,"I-20, EXIT 8",Shreveport,LA,745,2.89233333,32.46029828168662,-93.824487
4239,SPEEDWAY #8256,"I-64, EXIT 94 & SR-1958 & US-60",Winchester,KY,410,2.92233333,37.990079,-84.1796503
4241,EXXON,"I-285, EXIT 53",Conley,GA,18,3.999,33.635945,-84.32948267408517
4267,CONOCO,US-30 & SR-41,Gap,PA,160,3.799,39.989477,-76.01735113786651
4292,KUM & GO #0032,"I-80/US-6, EXIT 155 & SR-117",Colfax,IA,320,3.08233333,41.6777241,-93.2452335
4301,TIGER DISCOUNT TRUCKSTOP,"I-94, EXIT 64 & I-94 BUS",Dickinson,ND,807,3.51566666,46.88444859843407,-102.74272256237803
4311,Saveway Truck Plaza,"I-65, EXIT 164 & US-31",Hope Hull,AL,720,3.139,32.2698632,-86.3571916
4331,KWIK STOP C STORES,US-61/US-151,Dubuque,IA,335,3.559,42.5006243,-90.6647985
4332,PILOT TRAVEL CENTER #468,"I-57, EXIT 283 & US-24",Gilman,IL,280,3.399,40.752771249999995,-88.0029293961768
4332,PILOT TRAVEL CENTER #468,"I-57, EXIT 283 & US-24",Gilman,IL,280,3.559,40.752771249999995,-88.0029293961768
4332,PILOT TRAVEL CENTER #468,"I-57, EXIT 283 & US-24",Gilman,IL,280,3.439,40.752771249999995,-88.0029293961768
4332,PILOT TRAVEL CENTERS #468,"I-57, EXIT 283 & US-24",Gilman,IL,280,3.459,40.752771249999995,-88.0029293961768
4335,HIGHWAY 20  AUTO TRUCK PLAZA,US-20,Peosta,IA,335,3.489,42.4469535,-90.8433797
4339,ROAD RANGER #273,I-69E/US-77 & SR-107,Combes,TX,639,3.049,26.2486851,-97.7338816
4349,ROAD RANGER #144,"I-380, EXIT 68US-20, EXIT 68",Evansdale,IA,565,3.729,42.4771838,-92.288411
4363,EL CHEAPO #4,"I-95, EXIT 87",Richmond Hill,GA,195,3.09566666,31.9382381,-81.3035515
4368,HOODS SERVICE CENTER,"I-44, EXIT 61",Bois D Arc,MO,535,3.074,37.2564382,-93.507696
4372,GRADYS TRUCKSTOP,"I-16, EXIT 111",Pulaski                                 ,GA,195,3.46566666,32.2330518,-83.4674404
4373,KUM & GO #0043,"I-35, EXIT 43 & SR-207/CRG76",New Virginia,IA,320,3.114,41.180595,-93.7300396
4389,TAYLOR QUIK-PIK,"I-29, EXIT 75 & US-30",Missouri Valley,IA,486,3.399,41.5564975,-95.8879438
4395,BREAK TIME #3147,"I-55, EXIT 67 & US-62",Sikeston,MO,275,3.499,36.876719,-89.5878579
4417,TA MORIARITY TRAVEL CENTER,"I-40, EXIT 194",Moriarty,NM,580,3.21733333,35.007228377663594,-106.02383348212757
4419,CASEYS #3081,"I-35, EXIT 92 & US-136",Bethany,MO,400,3.06066666,40.2683344,-94.0282861
4427,CASEYS #2654,"I-80/US-6, EXIT 93 & CR-P28",Stuart,IA,320,3.099,41.5033213,-94.3185737
4431,CASEYS #2653,"US-63 & US-30, EXIT 202",Toledo,IA,320,3.349,41.9958439,-92.5790678
4437,UNDERWOOD TRUCK STOP I 80,"I-80, EXIT 17",Underwood                               ,IA,319,3.00066666,41.3872477,-95.678862
4441,PILOT TRAVEL CENTERS #51,"I-81 BAILEYTON RD, EXIT 36",Greeneville,TN,405,3.56233333,36.1631575,-82.8309861
4442,Minuteman Food Mart #58,US-74/US-76,Delco,NC,245,3.50733333,34.3157241,-78.2247211
4445,TA Rogers,"I-94/US-52, EXIT 207 & SR-101",Rogers,MN,448,3.274,45.1888596,-93.5524563
4446,LOVES TRAVEL STOP #200,I-40 EXIT 74,Amarillo,TX,585,3.209,35.19561396742317,-101.85981412857859
4451,PRAIRIE JUNCTION TRUCK STOP,"I-29, EXIT 109 & SR-34",Colman,SD,530,3.099,43.982472,-96.814497
4452,CASEYS #2867,US-63 & US-20,Waterloo,IA,380,3.499,42.498275,-92.3328743
4458,KUM & GO #1443,"I-80, EXIT 216",Williamsburg,IA,380,3.13066666,41.6612394,-92.0095079
4460,EXIT 62 TRUCKSTOP,"I-71, EXIT 62 & US-127",Glencoe,KY,415,3.16566666,38.7145093,-84.8227255
4463,QUIKTRIP #7901,"I-20, EXIT 556 & US-69",Lindale,TX,710,2.80733333,32.4694219025546,-95.43414533426218
4482,FLYING J TRAVEL PLAZA #777,"I-84, EXIT 54(FEDERAL WAY)",Boise,ID,785,3.809,43.6166163,-116.200886
4482,FLYING J FUEL STOP #777,"I-84, EXIT 54(FEDERAL WAY)",Boise,ID,785,3.76566666,43.6166163,-116.200886
4492,3 MILE CORNER TRUCK STOP,US-2 & US-95,Bonners Ferry,ID,970,3.734,48.6972317,-116.3119832
4525,STINKER #42,US-12/US-95 & SR-128,Lewiston,ID,970,3.69733333,46.431462310618684,-117.05725589842984
4528,WENATCHEE VALLEY TRUCK STOP,US-97 ALT,Wenatchee,WA,920,4.199,47.4234599,-120.310349
4528,WENATCHEE VALLEY TRUCK STOP,US-97 ALT,Wenatchee,WA,920,4.119,47.4234599,-120.310349
4528,WENATCHEE VALLEY TRUCK STOP,US-97 ALT,Wenatchee,WA,920,4.089,47.4234599,-120.310349
4533,SPEEDWAY #1449,"I-65, EXIT 262B",Birmingham                              ,AL,615,2.97566666,33.5206824,-86.8024326
4544,BIG CHARLIES TRUCK PLAZA,"I-64, EXIT 282 & US-13",Virginia Beach,VA,130,3.489,36.8496579,-75.9760751
4555,PILOT TRAVEL CENTERS #406,"I-65, EXIT 22 & US-31A/SR-11",Cornersville,TN,460,3.799,35.3614649,-86.8397237
4560,FAST STOP TRAVEL CENTERS #1109,"I-15, EXIT 392",Plymouth,UT,835,3.58233333,41.8754813,-112.1441223
4563,PILOT TRAVEL CENTERS #299,"I-55/I-74/US-51, EXIT 160 & US-150/SR-9",Bloomington                             ,IL,280,3.599,40.4797828,-88.9939147
4563,PILOT TRAVEL CENTERS #299,"I-55/I-74/US-51, EXIT 160 & US-150/SR-9",Bloomington                             ,IL,280,3.399,40.4797828,-88.9939147
4563,PILOT TRAVEL CENTER #299,"I-55/I-74/US-51, EXIT 160 & US-150/SR-9",Bloomington                             ,IL,280,3.399,40.4797828,-88.9939147
4563,PILOT TRAVEL CENTERS #299,"I-55/I-74/US-51, EXIT 160 & US-150/SR-9",Bloomington                             ,IL,280,3.499,40.4797828,-88.9939147
4563,PILOT TRAVEL CENTER #299,"I-55/I-74/US-51, EXIT 160 & US-150/SR-9",Bloomington                             ,IL,280,3.499,40.4797828,-88.9939147
4563,PILOT TRAVEL CENTER #299,"I-55/I-74/US-51, EXIT 160 & US-150/SR-9",Bloomington                             ,IL,280,3.599,40.4797828,-88.9939147
4568,ONVO TRAVEL PLAZA,"I-90, EXIT 28",Fultonville,NY,12,3.199,42.9478357,-74.3699085
4568,ONVO TRAVEL PLAZA,"I-90, EXIT 28",Fultonville,NY,12,3.159,42.9478357,-74.3699085
4569,METROPOLIS TRUCK STOP,"I-24, EXIT 37 & US-45",Metropolis,IL,490,3.599,37.1511655,-88.7319979
4574,Circle K #4701432,"I-74, EXIT 174",Mahomet,IL,280,3.669,40.195142,-88.4052266
4582,BIG CHIEF TRUCK STOP,"I-94/US-52, EXIT 61 & US-59/CR-82",Fergus Falls,MN,250,3.23566666,46.283015,-96.077558
4605,PILOT DEALER #898 SADLERS TRUCK STOP,"I-95, EXIT 11B & US-58",Emporia,VA,180,3.799,36.6937606,-77.5357141
4618,OUTPOST TRAVEL CENTER,"I-20, EXIT 5 & US-80",Greenwood,LA,745,2.899,32.4429324,-93.9729615
4620,PILOT TRAVEL CENTERS #95,"I-75, EXIT 329 & SR-44",Wildwood                                ,FL,225,3.22566666,28.865286,-82.0394286
4620,PILOT TRAVEL CENTER #95,"I-75, EXIT 329 & SR-44",Wildwood                                ,FL,225,3.319,28.865286,-82.0394286
4622,TA LEE HI TRAVEL PLAZA,"I-81,  EXIT 195",Lexington,VA,185,3.659,37.7840208,-79.4428157
4628,QUARLES #4601,US-29/US-17/US-15,Warrenton,VA,60,3.32233333,38.7135498,-77.795367
4637,THORNTONS #369 DBA PILOT TRAVEL CENTER #514,"I-55, EXIT 126 & SR-10",Lincoln                                 ,IL,318,3.399,40.1481349,-89.3636569
4637,THORNTONS #369 DBA PILOT TRAVEL CENTER #514,"I-55, EXIT 126 & SR-10",Lincoln                                 ,IL,318,3.499,40.1481349,-89.3636569
4637,PILOT TRAVEL CENTER #514 - THORNTONS #369,"I-55, EXIT 126 & SR-10",Lincoln                                 ,IL,318,3.499,40.1481349,-89.3636569
4637,PILOT TRAVEL CENTER #514 - THORNTONS #369,"I-55, EXIT 126 & SR-10",Lincoln                                 ,IL,318,3.399,40.1481349,-89.3636569
4642,MARSHAL JUNCTION,"I-70, EXIT 147 & SR-1",Marshall                                ,IL,510,3.199,41.0324537,-89.2998456
4642,MARSHAL JUNCTION,"I-70, EXIT 147 & SR-1",Marshall                                ,IL,510,3.399,41.0324537,-89.2998456
4644,CIRCLE K #4706703,"I-80, EXIT 145A",Mokena,IL,290,3.399,41.5261437,-87.8892189
4644,CIRCLE K #4706703,"I-80, EXIT 145A",Mokena,IL,290,3.339,41.5261437,-87.8892189
4654,7-ELEVEN #35087,"I-490, EXIT 2 & SR-33 & SR-19",Bergen,NY,190,4.029,43.0852666,-77.9418857
4655,QUICKLEES TRAVEL CENTER,"I-86, EXIT 30 & CR-20",Belmont,NY,190,3.999,42.2231241,-78.0344506
4690,PWI #401,"I-20 & I-30, EXIT 1B",Aledo,TX,630,2.799,32.6979939,-97.60399378280016
4700,A C TRUCKSTOP,"I-80, EXIT 290",Laramie                                 ,WY,795,3.079,41.09974866250282,-105.14365592655454
4704,THE RIDGE,"I-68/US-219, EXIT 14 & US-40",Accident,MD,165,4.199,39.6289521,-79.3208439
4707,SMITHTON TRUCKSTOP,"I-70, EXIT 39 & SR-3059",Smithton,PA,165,3.899,40.1539613,-79.7411535
4729,MINIT MART #600244,"I-70, EXIT 131",Straughn,IN,457,3.859,39.8089351,-85.2913559
4742,FLYING J TRAVEL PLAZA #684,"I-94, EXIT 1 & SR-16",Beach,ND,807,3.96566666,46.933619370826484,-103.97619401344227
4750,BROOKE TRAVEL PLAZA,"I-80, EXIT 259",West Liberty,IA,380,2.98733333,41.5700231,-91.2637695
4762,TA MONROE TRAVEL CENTER,"I-75, EXIT 15",Monroe,MI,325,3.349,39.42013685,-84.34931234751937
4762,TA MONROE TRAVEL CENTER,"I-75, EXIT 15",Monroe,MI,325,3.249,39.42013685,-84.34931234751937
4762,TA MONROE TRAVEL CENTER,"I-75, EXIT 15",Monroe,MI,325,3.369,39.42013685,-84.34931234751937
4762,TA MONROE TRAVEL CENTER,"I-75, EXIT 15",Monroe,MI,325,3.299,39.42013685,-84.34931234751937
4806,TRACK AND TRAVEL,"I-20, EXIT 406",Weatherford,TX,630,2.91733333,32.74469552261454,-97.74018162914787
4818,PILOT TRAVEL CENTER #350,"I-84 & US-20, EXIT 95",Mountain Home,ID,785,3.799,43.1329504,-115.691197
4818,PILOT TRAVEL CENTERS #350,"I-84 & US-20, EXIT 95",Mountain Home,ID,785,3.759,43.1329504,-115.691197
4819,Alta Convenience #6333,"I-25, EXIT 11",Trinidad,CO,803,3.399,37.169397,-104.500541
4826,I-20 Truck Stop,"I-20, EXIT 165",Lincoln,AL,615,2.999,33.6131588,-86.1183061
4827,PETRO BEAUMONT #304,"I-10, EXIT 848",Beaumont,TX,610,3.33066666,30.090403579976737,-94.13566802286991
4837,SHELL,US-10 & SR-210,Motley,MN,522,3.399,46.3366315,-94.646125
4856,PILOT TRAVEL CENTER #910- TOWN PUMP,"I-90, EXIT 274 & US-287",Three Forks,MT,786,3.59733333,45.892606,-111.551448
4858,PILOT TRAVEL CENTER #1346,"I-135, EXIT 31",Newton,KS,570,3.3115,38.0469166,-97.3447244
4858,PILOT DEALER #1346,"I-135, EXIT 31",Newton,KS,570,3.409,38.0469166,-97.3447244
4860,PILOT TRAVEL CENTER #476,"I-74, EXIT 32 & SR-17",Woodhull,IL,270,3.899,41.1789256,-90.3159582
4860,PILOT TRAVEL CENTERS #476,"I-74, EXIT 32 & SR-17",Woodhull,IL,270,3.899,41.1789256,-90.3159582
4872,TA COMMERCE TRAVEL CENTER,"I-85, EXIT 149 & US-441",Commerce,GA,16,3.21566666,34.203997,-83.4571058
4874,PWI #110,"I-20, EXIT 112 & FM-1936",Odessa,TX,710,3.049,31.8182367440872,-102.38535240703926
4878,SHELL DBA ONE9 #1426,"I-84, EXIT 35",Nampa                                   ,ID,785,3.374,43.5737361,-116.559631
4881,PETRO STOPPING CENTER #14,"I-295, EXIT 56",Bordentown,NJ,230,4.029,40.1462685,-74.7114508
4885,LOVES TRAVEL STOP #384,"I-70, EXIT 45",Greenville,IL,540,3.689,38.8922687,-89.4131356
4885,LOVES TRAVEL STOP #384,"I-70, EXIT 45",Greenville,IL,540,3.749,38.8922687,-89.4131356
4885,LOVES TRAVEL STOP #384,"I-70, EXIT 45",Greenville,IL,540,3.689,38.8922687,-89.4131356
4885,LOVES TRAVEL STOP #384,"I-70, EXIT 45",Greenville,IL,540,3.689,38.8922687,-89.4131356
4885,LOVES TRAVEL STOP #384,"I-70, EXIT 45",Greenville,IL,540,3.689,38.8922687,-89.4131356
4885,LOVES TRAVEL STOP #384,"I-70, EXIT 45",Greenville,IL,540,3.749,38.8922687,-89.4131356
4887,SUNOCO,"I-80 & I-90, EXIT 3",Wauseon                                 ,OH,550,3.699,41.546069,-84.1362047
4894,CLOVERDALE TRAVEL PLAZA,"I-70, EXIT 41 & US-231",Cloverdale,IN,375,3.699,39.5147682,-86.7938969
4905,HY-MILER #2204,SR-250,Sandusky,OH,550,3.53233333,41.2951563,-83.1555438
4909,CIRCLE K #2723916,US-441/US-301/US/27/SR-500,Ocala,FL,140,3.459,29.1871986,-82.1400923
4910,PILOT TRAVEL CENTER #892,"I-70 EXIT 164, & US-50",Green River,UT,835,3.68566666,40.39785203068765,-109.2811867442254
4918,PILOT TRAVEL CENTERS #219,"I-40, EXIT 398",Knoxville,TN,405,3.699,35.97603695,-83.93144881048028
4920,TA LAPLACE,"I-10, EXIT 209 & US-5",La Place,LA,600,3.22733333,32.3784735,-85.8627339
4921,PILOT TRAVEL CENTERS #231,"I-75, EXIT 29",Corbin,KY,410,3.609,36.9486986,-84.0968761
4927,CIRCLE K #2704886,"I-65, EXIT 205 & US-31/SR-22",Clanton,AL,720,3.20733333,32.8392013,-86.6309229
4933,VILLAGE TRUCK STOP,"I-81, EXIT 18",Rural Retreat                           ,VA,185,3.299,36.8937299,-81.2759341
4977,KWIK TRIP #331,SR-54,Wisconsin Rapids,WI,395,3.26233333,44.3917589,-89.8228767
4981,JOHNNYS MARKET,"I-94, EXIT 110 & US-27",Marshall,MI,385,3.499,41.0324537,-89.2998456
4983,KWIK TRIP #603,"I-94, EXIT 28 & SR-128",Wilson,WI,451,3.549,44.9534314,-92.173789
4996,ZIP TRIP #54,"I-90, EXIT 452",Billings,MT,780,3.59066666,45.74355214365942,-108.56237261278007
5003,TRAILWAY TRUCK STOP,US-301/SR-304,Centreville                             ,MD,22,3.259,39.0420588,-76.0674344
5006,SUNOCO,US-1/US-9,Linden,NJ,79,3.799,40.6220478,-74.2445902
5024,I 55 MOTOR PLAZA,"I-55,  EXIT 180",Pevely,MO,540,2.99066666,38.2833879,-90.3951204
5030,YESWAY #1030,US-63 & E MARY ST,Ottumwa,IA,320,3.399,41.0195659,-92.4116886
5044,TA MOUNT VERNON TRAVEL CENTER,"I-44, EXIT 46 & SR-39/SR265",Mount Vernon,MO,535,3.409,37.1036666,-93.8185401
5050,ROCK PORT TRUCK PLAZA,"I-29 & US-136, EXIT 110",Rock Port,MO,400,3.099,40.4111122,-95.5169286
5056,TREX MART #16,"I-35, EXIT, 61 & US-69",Winston,MO,276,3.119,39.8700035,-94.139947
5057,PHILLIPS 66,"I-35, EXIT 54 & I-35 BUS/US-36",Cameron,MO,276,3.099,39.7412703,-94.2384482
5060,CRAZY FREDS TRUCK SHOP,"I-40, EXIT 44 & US-66",Kingman,AZ,910,3.539,35.2602297,-113.94931449999999
5064,CLARK OIL #44,"I-59, EXIT 97",Laurel                                  ,MS,620,2.879,31.6940509,-89.1306124
5079,FASTLANE TAYLOR 63,US-61 & SR-6,Taylor,MO,494,3.01566666,39.9381011,-91.5237663
5085,K AN T TRUCKSTOP,"I-79, EXIT 137 & SR-310",Fairmont,WV,165,3.399,39.4850848,-80.1425781
5111,CIRCLE K #2723385,"I-59, EXIT 67 & US-49/SR-42",Hattiesburg,MS,620,3.149,31.3271189,-89.2903392
5117,CIRCLE K #4702361,"I-65, EXIT 130 & SR-334",Whitestown,IN,375,3.29233333,39.9972626,-86.3458296
5128,CASEYS #2769,"I-80, EXIT 220 & SR-149",Williamsburg,IA,380,3.14233333,41.6612394,-92.0095079
5131,TRAILS END TRUCK STOP,"I-29, EXIT 110 & US-136",Rock Port,MO,486,3.40566666,40.4111122,-95.5169286
5132,Travel Centers of America,"I-44, EXIT 208 & SR-19",Cuba,MO,574,3.26566666,38.063021,-91.4032473
5160,FUEL MART #727,"I-70, EXIT 193",Quaker City                             ,OH,249,3.16566666,39.9700707,-81.2992798
5163,Blue Sky #733,"US-78, EXIT 81 & SR-178",Belden,MS,742,2.939,34.3103831,-88.7883888
5165,ONE9 #046,"I-65, EXIT 6 & SR-100",Franklin,KY,415,3.08566666,38.2520423,-84.8633812
5167,SPEEDWAY #7575,"I-65, EXIT 255",Hobart,IN,290,3.63233333,41.5322592,-87.2550353
5170,FLYING J #516,"I-76, EXIT 161 & I-70",Breezewood,PA,14,5.099,39.9990119,-78.2404221
5183,PETRO STOPPING CENTER #74,I-95 & EXIT 106,Kenly,NC,205,3.709,35.5959363,-78.1240031
5191,NORTH POINT PLAZA,"I-90 & I-94, EXIT 115",Poynette,WI,420,3.17233333,43.3912031,-89.402862
5202,Chevron #306185,US-30,Montpelier,ID,825,3.699,42.3221498,-111.2977044
5203,OASIS TRAVEL CENTER,"I-10, EXIT 53",Robertsdale,AL,715,3.469,30.5552959,-87.7109526
5207,JJ TRAVEL PLAZA,"I-70, EXIT 70 & US-83",Oakley,KS,525,3.61566666,39.126385,-100.855611
5227,PILOT TRAVEL CENTERS #900,"I-95, EXIT 75",Dunn,NC,205,3.709,35.28563450106626,-78.60839262892945
5230,ONE9 #496,"I-80, EXIT 265",Atalissa,IA,270,3.01566666,41.5711357,-91.1659888
5232,CM EUNICE,US-190,Eunice,LA,730,3.399,30.4943669,-92.4176324
5234,SINCLAIR,SR-37,Monett,MO,277,3.29066666,36.9289518,-93.9277149
5236,FLYING J #875,"I-95,  EXIT 109",Elkton,MD,243,4.199,39.6065073,-75.8330934
5245,CASEYS #3842,US-36 & US-283,Norton,KS,357,3.15733333,39.7944702,-99.9100033
5247,EDGERTON TRAVEL PLAZA,"I-90, EXIT 160 & US-51",Edgerton,WI,420,3.199,42.856240294241104,-89.05342733725415
5249,Taylor's Stateline Travel Center,US-67 & SR-278,Neelyville,MO,275,2.999,36.561713,-90.5061465
5254,TA CANDLER TRAVEL CENTER,"I-40, EXIT 37",Candler,NC,210,3.799,35.5444359,-82.6838032
5255,7-ELEVEN #35788,"I-35, EXIT 215",Olathe,KS,400,3.339,38.8838856,-94.81887
5258,PT TRUCK STOP,"I-12, EXIT 42",Hammond                                 ,LA,623,3.249,30.5043583,-90.4611995
5282,CASEYS #3548,US-54 & US-61,Pratt,KS,357,3.14066666,37.6280602,-98.7485305
5285,TULLO TRUCK STOP,"I-95, EXIT 15E & US-1/US-9",Kearny,NJ,79,3.799,40.7684342,-74.1454214
5297,ERNIES TRUCK STOP,"I-90,  EXIT 179 & I-90 BUS/SR-17",Moses Lake,WA,920,3.999,47.10350065,-119.31217899371902
5297,ERNIES TRUCK STOP,"I-90,  EXIT 179 & I-90 BUS/SR-17",Moses Lake,WA,920,3.949,47.10350065,-119.31217899371902
5297,ERNIES TRUCK STOP,"I-90,  EXIT 179 & I-90 BUS/SR-17",Moses Lake,WA,920,4.179,47.10350065,-119.31217899371902
5299,Sudden Service #62,"I-65, EXIT 6 & SR-100",Franklin,KY,460,3.084,38.2520423,-84.8633812
5302,ONE9 #258,"I-81, EXIT 150 & US-220 ALT & US-11",Troutville,VA,185,3.03233333,37.4181901,-79.8747687
5306,PILOT TRAVEL CENTERS #11,"I-76, EXIT 232",North Lima                              ,OH,573,3.799,40.9482165,-80.658496
5309,NEWBORN TRUCK STOP,I-20 EXIT 5,Tallapoosa,GA,48,3.40733333,33.7442912,-85.2879889
5310,FLYING J #576,"I-35, EXIT 69",Northfield,MN,515,3.859,44.4582041,-93.161159
5324,HY-MILER #2245,SR-53,Fremont,OH,550,3.38233333,41.3473413,-83.1134972
5341,KWIK STAR #1160,"US-75, EXIT 118 & SR-3",Le Mars,IA,408,3.299,42.792151,-96.1662993
5349,JET FOOD STORE #17,US-1/SR=4/SR-540 & US-220/SR-47,Wrens,GA,135,3.41566666,33.2076456,-82.391792
5363,SPEEDWAY #6767,"I-75, EXIT 20",Manheim,PA,70,4.499,40.1637359,-76.3952429
5389,FLYING J TRAVEL PLAZA #744,"I-15, EXIT 343",Ogden,UT,835,3.749,41.2230048,-111.9738429
5391,PWI #605,"I-10, EXIT 378",San Simon,AZ,640,2.959,32.2665117,-109.2270613
5399,FLYING J TRAVEL PLAZA #750,"I-81 & I-77, EXIT 80",Max Meadows,VA,185,3.549,36.981500999999994,-80.95804908043478
5407,CASEYS #4535,US 81,Concordia                               ,KS,570,2.91233333,39.571543,-97.661141
5414,One9 #1216,"I-10 ,EXIT 200 & SR-84",Eloy,AZ,930,3.199,32.7551703,-111.553493
5414,Pride Travel Center dba One9 #1216,"I-10 ,EXIT 200 & SR-84",Eloy,AZ,930,3.199,32.7551703,-111.553493
5419,USA TRAVEL CENTER,"I-40, EXIT 48 & US-93",Kingman,AZ,910,3.399,35.2602297,-113.94931449999999
5422,K AND H TRUCK PLAZA,"I-57, EXIT 283 & US-24",Gilman,IL,290,3.159,40.752771249999995,-88.0029293961768
5422,K AND H TRUCK PLAZA,"I-57, EXIT 283 & US-24",Gilman,IL,290,3.099,40.752771249999995,-88.0029293961768
5424,WK TRUCK STOP,"US-231 & SR-9001, EXIT 75",Beaver Dam,KY,340,3.399,37.4019918,-86.8758256
5435,MEADE AUTO AND TRUCK PLAZA,US-54,Meade                                   ,KS,525,3.799,37.2091116,-100.396302
5436,PARKWAY MARATHON,"US-79, EXIT 94",Caneyville,KY,415,3.73233333,37.4242184,-86.4883148
5446,PETRO STOPPING CENTER #308,"I-20, EXIT 8 & SR-526",Shreveport,LA,745,3.17566666,32.46029828168662,-93.824487
5462,BOOZER KWIK STOP,"I-15, EXIT 118",Idaho Falls                             ,ID,825,3.44733333,43.4887907,-112.03628
5464,PILOT TRAVEL CENTERS #48,"I-65, EXIT 86",Glendale,KY,415,3.609,37.6017278,-85.9055189
5474,One9 #88,"I-95/SR-9, EXIT 201 & SR-520",Cocoa,FL,143,3.37566666,28.3556635,-80.7325345
5477,CHEVRON #383766,"I-5, EXIT 216",Halsey,OR,935,3.099,44.3796117,-123.110065
5479,PILOT TRAVEL CENTERS #94,"I-75, EXIT 161",Punta Gorda,FL,225,3.799,26.9351529,-82.0512058
5479,PILOT TRAVEL CENTER #94,"I-75, EXIT 161",Punta Gorda,FL,225,3.799,26.9351529,-82.0512058
5491,49ER FUEL CENTER,"I-75, EXIT 49",East Bernstadt                          ,KY,410,2.999,37.1895318,-84.1177098
5492,BFS FOODS #68,"I-70, EXIT 3",Hancock                                 ,MD,22,4.129,39.6994024,-78.1820972
5522,ONE9 #301,"I-55,  EXIT 40",Marston,MO,275,3.109,36.5189503,-89.6125789
5523,TA LIMON TRAVEL CENTER,"I-70, EXIT 359 & US-24",Limon,CO,800,3.92066666,39.2625489,-103.6878419
5529,FLYING J #549,"I-77, EXIT 100 & 101",Mount Airy,NC,65,3.599,36.4993877,-80.6072138
5537,HUCKS TRAVEL CENTER #51 DBA FLYING J #889,"I-57/I-64, EXIT 95 & SR-15",Mount Vernon,IL,574,3.459,38.3172715,-88.9031201
5537,HUCKS TRAVEL CENTER #51 dba FLYING J #889,"I-57/I-64, EXIT 95 & SR-15",Mount Vernon,IL,574,3.499,38.3172715,-88.9031201
5537,HUCKS TRAVEL CENTER #51 DBA FLYING J #889,"I-57/I-64, EXIT 95 & SR-15",Mount Vernon,IL,574,3.359,38.3172715,-88.9031201
5537,HUCKS TRAVEL CENTER #51 DBA FLYING J #889,"I-57/I-64, EXIT 95 & SR-15",Mount Vernon,IL,574,3.599,38.3172715,-88.9031201
5537,HUCKS TRAVEL CENTER #51 dba FLYING J #889,"I-57/I-64, EXIT 95 & SR-15",Mount Vernon,IL,574,3.399,38.3172715,-88.9031201
5554,Southfork TRUCK STOP,"I-30, EXIT 63 & SR-53",Gurdon,AR,635,3.459,33.9182285,-93.1488168
5560,MIDWAY TRAVEL PLAZA,I-70 EXIT 121 & US-40,Columbia,MO,310,3.539,38.96597900870607,-92.3505000043298
5569,TA EXPRESS NORWOOD #0450,US-60,Norwood,MO,535,3.449,37.1083858,-92.4148865
5570,PETRO STOPPING CENTER #310,"I-12, EXIT 40 & US-51 BUS",Hammond,LA,725,3.249,30.5043583,-90.4611995
5579,SAPP BROS TRAVEL CENTER,US-30,Columbus,NE,486,3.219,41.4292988,-97.3581439
5592,TA COLUMBIA NORTH,"I-20, EXIT 71 & US-21",Columbia,SC,46,3.439,34.000754,-81.0352313
5597,CM LAKE CHARLES FUEL STOP 36,"I-10, EXIT 36 & SR-397",Lake Charles,LA,690,3.299,30.2305095,-93.2169807
5601,BP,"I-24, EXIT 16",Paducah,KY,490,3.429,37.051416,-88.6507481
5603,TA NORTH CANTON TRAVEL CENTER,"I-77, EXIT 111",North Canton,OH,249,3.624,40.875891,-81.4023356
5606,FLYING J #511,"I-94, EXIT 147",Mandan,ND,273,3.95233333,46.826415,-100.889704
5607,RICE MART,"I-45 & FM 1603, EXIT 238",Rice,TX,630,3.019,32.2437586,-96.4985967
5608,SHOP A LOTT  #3,US-84 & US-171,Mansfield                               ,LA,766,3.13566666,32.0218301,-93.7143492
5613,CHEVRON #381108,"I-82, EXIT 36",Yakima,WA,925,3.999,46.601557,-120.510842
5618,MCCLURE OIL #52,"I-65/US-52, EXIT 140 & SR-32",Lebanon                                 ,IN,375,3.584,40.0483744,-86.4691677
5649,Fast Stop,"I-10, EXIT 182 & SR-22",Sorrento                                ,LA,623,3.699,30.1843642,-90.8592632
5651,LOVES TRAVEL STOP #303,"I-64, EXIT 43 & SR-395",Waddy,KY,415,3.749,38.1370153,-85.0743978
5659,TEX-BEST #526,US-59 & US-281,George West,TX,625,3.299,28.3318242,-98.1171612
5660,Pride Convenience Store,"I-90, EXIT 51 & I-291",Chicopee,MA,100,3.509,42.1487691,-72.6071119
5661,TA Express #287,"I-40, EXIT 288 & SR-111",Cookeville,TN,460,3.299,36.137877351494225,-85.51456146623512
5667,PILOT TRAVEL CENTERS #393,"I-40, EXIT 24 & SR-209",Waynesville                             ,NC,210,3.759,35.4887476,-82.9888725
5669,KWIK TRIP #497,I-90 EXIT 266 & CR-12,Dakota,MN,515,3.474,44.666655,-93.044911
5670,TA MOUNT VERNON TRAVEL CENTER,"I-57 & I-64, EXIT 95",Mount Vernon,IL,574,3.449,38.3172715,-88.9031201
5670,TA MOUNT VERNON TRAVEL CENTER,"I-57 & I-64, EXIT 95",Mount Vernon,IL,574,3.499,38.3172715,-88.9031201
5670,TA MOUNT VERNON TRAVEL CENTER,"I-57 & I-64, EXIT 95",Mount Vernon,IL,574,3.539,38.3172715,-88.9031201
5674,TA MADISON TRAVEL CENTER,"I-20, EXIT 114 & US-441",Madison,GA,16,3.89066666,34.1307533,-83.1817407
5677,YESWAY #1178,CR-13,Kadoka,SD,506,3.189,43.833882,-101.509866
5691,Pilot Travel Center #666,"I-94, EXIT 30",Benton Harbor,MI,465,3.059,42.1167065,-86.4541894
5700,BEACON & BRIDGE #18,US-131 BUS,Big Rapids,MI,456,3.559,43.698078,-85.483656
5700,BEACON & BRIDGE #18,US-131 BUS,Big Rapids,MI,456,3.319,43.698078,-85.483656
5700,BEACON & BRIDGE #18,US-131 BUS,Big Rapids,MI,456,3.339,43.698078,-85.483656
5718,TOOT N TOTUM #104,US-287,Dalhart,TX,585,3.199,36.060408,-102.5180763
5721,TA BALTIMORE SOUTH TRAVEL CENTER,"I-95, EXIT 41A & SR-175 & US-1",Jessup,MD,22,4.599,39.147001450000005,-76.76991768022445
5729,MENOMONIE FARMERS UNION,"I-94, EXIT 45 & CR-B",Menomonie,WI,295,3.649,44.8765289,-91.9278716
5730,SCOTTS QUICK STOP,SR-53 & SR-46,Marlette,MI,342,3.399,43.326969,-83.08022
5739,PILOT TRAVEL CENTERS #284,"I-75, EXIT 18",Monroe                                  ,MI,325,3.399,39.42013685,-84.34931234751937
5739,PILOT TRAVEL CENTERS #284,"I-75, EXIT 18",Monroe                                  ,MI,325,3.299,39.42013685,-84.34931234751937
5739,PILOT TRAVEL CENTERS #284,"I-75, EXIT 18",Monroe                                  ,MI,325,3.559,39.42013685,-84.34931234751937
5739,PILOT TRAVEL CENTERS #284,"I-75, EXIT 18",Monroe                                  ,MI,325,3.249,39.42013685,-84.34931234751937
5739,PILOT TRAVEL CENTERS #284,"I-75, EXIT 18",Monroe                                  ,MI,325,3.439,39.42013685,-84.34931234751937
5751,TA LAKE PARK TRAVEL CENTER,"I-75,  EXIT 2",Lake Park,GA,20,3.31566666,30.6828653,-83.1798644
5754,ROAD TRIP OASIS PERRY,"I-69, EXIT 105 & SR-52",Perry,MI,406,3.799,40.3966461,-77.2890283
5754,ROAD TRIP OASIS PERRY,"I-69, EXIT 105 & SR-52",Perry,MI,406,3.699,40.3966461,-77.2890283
5758,SPEEDY Q MARKET #8206,"I-94, EXIT 274",Port Huron                              ,MI,325,3.899,42.9760854,-82.4333742
5770,Kwik Trip # 1281,"I-43, EXIT 107",Belgium                                 ,WI,444,3.25566666,43.4997212,-87.850367
5771,DUNES AUTO TRUCK PLAZA,"I-94, EXIT 12",Sawyer,MI,465,3.499,45.8731634,-91.1468287
5771,DUNES AUTO TRUCK PLAZA,"I-94, EXIT 12",Sawyer,MI,465,3.599,45.8731634,-91.1468287
5774,PJ TRAVEL PLAZA,"I-80, EXIT 192 & SR-880",Loganton,PA,138,3.479,41.0347015,-77.3066113
5780,BILLS TRUCKSTOP,"I-85, EXIT 86                 ",Linwood                                 ,NC,65,3.449,35.7506938,-80.3178306
5799,STAPLES OIL,"I-90, EXIT 146",Alden,MN,425,3.299,43.6703382,-93.5761961
5801,TA WYTHEVILLE TRAVEL CENTER,"I-81, EXIT 72 & I-77, EXIT 41",Wytheville,VA,185,3.519,36.9479966,-81.0869747
5821,TA PORTLAND TRAVEL CENTER,"I-5,  EXIT 278",Aurora,OR,935,4.03233333,45.2310497,-122.755035
5823,ENMARKET #863,"I-95, EXIT 8 & SR-88",Hardeeville,SC,195,3.08233333,32.2802665,-81.0726108
5830,115 TRUCKSTOP #5001,"I-94, EXIT 115",Marshall,MI,431,3.429,41.0324537,-89.2998456
5830,115 TRUCKSTOP #5001,"I-94, EXIT 115",Marshall,MI,431,3.499,41.0324537,-89.2998456
5830,115 TRUCKSTOP #5001,"I-94, EXIT 115",Marshall,MI,431,3.589,41.0324537,-89.2998456
5842,PETRO STOPPING CENTER #6367,"I-57,  EXIT 335",Monee,IL,290,3.459,41.420034,-87.7417115
5842,PETRO STOPPING CENTER #6367,"I-57,  EXIT 335",Monee,IL,290,3.499,41.420034,-87.7417115
5842,PETRO STOPPING CENTER #6367,"I-57,  EXIT 335",Monee,IL,290,3.399,41.420034,-87.7417115
5860,SPEEDWAY #4610,"I-35, EXIT 59 & SR-21",Faribault,MN,448,3.759,43.6647961,-93.9510501
5873,SOUTHERN VALLEY COOP,ST 14 BYPASS,Mankato                                 ,MN,425,3.499,44.1634663,-93.9993505
5901,ROTHSAY TRUCK STOP,"I-94, EXIT 38",Rothsay,MN,341,3.209,46.4739548,-96.2808631
5903,Circle K #2746447,I-94/US-52 EXIT 127 & US-71/SR-28,Sauk Centre,MN,250,3.189,45.737465,-94.9525216
5907,SPEEDWAY #4035,CR-101,Shakopee,MN,448,3.599,44.7980186,-93.5268986
5909,SINCLAIR,"I-90, EXIT 233",Saint Charles,MN,515,3.529,43.9693607,-92.0659824
5927,HARRISONBURG TRAVEL CENTER,"I-81,  EXIT 243 & US-11",Harrisonburg,VA,185,2.899,38.4493315,-78.8688833
5935,WESTHAMPTON VALERO,I-295 EXIT 47A,Mount Holly                             ,NJ,160,3.329,39.9928898,-74.7876624
5942,EXPRESS MART TRUCK STOP,"I-55, EXIT 185 & US-67/US-61",Barnhart,MO,540,2.99733333,38.3397205,-90.40674247584822
5944,LAKE MILLS TRAVEL PLAZA,"I-94, EXIT 259 & SR- 89/CR-G",Lake Mills,WI,420,3.36066666,43.0798032,-88.9125723
5946,PILOT TRAVEL CENTERS #918,I-90 EXIT 55,Rapid City,SD,506,3.999,44.107972865459814,-103.25978860269059
5949,EXXON,US-59 & LOOP 151,Texarkana                               ,TX,723,3.16566666,33.44667445,-94.07714830522015
5951,ROAD RANGER #157,I-64 EXIT 41,Okawville,IL,540,3.799,38.4342164,-89.5503676
5963,OZONA ONE STOP,"I-10, EXIT 372",Ozona                                   ,TX,710,2.98233333,30.7098786,-101.2036387
5965,TRUCK TOWNE,I-29 EXIT 47 & SR-46,Beresford                               ,SD,572,3.159,43.0806132,-96.7742341
5971,WACO TRAVEL CENTER,SR-19,Perry,FL,20,3.699,30.1174351,-83.5818147
5979,TA LAFAYETTE TRAVEL CENTER,"I-10 & SR-182, EXIT 101",Lafayette,LA,600,3.134,30.2262187,-92.0178202
5980,THRIFT MART TRUCK PLAZA,"I-85/US-460, EXIT 63A & US-1/US-460 BUS",Petersburg,VA,180,3.199,37.227928,-77.4019268
5990,360 TRUCK STOP,US-360,Amelia Court House,VA,180,3.599,37.336473,-77.98909723513111
5996,Fast Stop Travel Centers #1134,"I-80/US-30, EXIT 99 & US-191/SR-373",Rock Springs,WY,827,3.499,41.5860557,-109.2194544
5999,PILOT TRAVEL STOP #492,"I-30, EXIT 78 & SR-7",Arkadelphia,AR,635,3.559,34.1209292,-93.053784
5999,PILOT TRAVEL CENTER #492,"I-30, EXIT 78 & SR-7",Arkadelphia,AR,635,3.499,34.1209292,-93.053784
6001,ALLSUPS #2392,US-70 & US-285,Roswell,NM,700,3.199,33.39447832312804,-104.58490037446037
6009,CASEYS #2652,US-65 & US-36,Chillicothe,MO,400,3.289,39.7948749,-93.5532779
6010,SEGOVIA TRUCK STOP,"I-10, EXIT 465",Junction,TX,739,2.999,30.50910034947952,-99.77472228878652
6018,TA BLOOMINGTON TRAVEL CENTER,"I-55, I-74 & I-39 , EXIT 160",Bloomington,IL,280,3.619,40.4797828,-88.9939147
6018,TA BLOOMINGTON TRAVEL CENTER,"I-55, I-74 & I-39 , EXIT 160",Bloomington,IL,280,3.649,40.4797828,-88.9939147
6018,TA BLOOMINGTON TRAVEL CENTER,"I-55, I-74 & I-39 , EXIT 160",Bloomington,IL,280,3.599,40.4797828,-88.9939147
6018,TA BLOOMINGTON TRAVEL CENTER,"I-55, I-74 & I-39 , EXIT 160",Bloomington,IL,280,3.449,40.4797828,-88.9939147
6018,TA BLOOMINGTON TRAVEL CENTER,"I-55, I-74 & I-39 , EXIT 160",Bloomington,IL,280,3.539,40.4797828,-88.9939147
6033,EMERY'S,US-54,Deerfield,MO,277,3.349,37.838381,-94.50798680376963
6037,CRYSTAL OIL,"I-129/US-20/US-75,  EXIT 2",South Sioux City,NE,527,3.549,42.4742963,-96.4135909
6041,COCKERHAM FUEL CENTER #4,"I-77, EXIT 14 & US-58/US-221",Hillsville,VA,185,3.28233333,36.7662528,-80.7370242
6047,FAST LANE #26,US-61,Eolia,MO,494,3.099,39.2358794,-91.0081918
6051,CIRCLE K #2709846,"I-25, EXIT 240",Longmont,CO,800,3.05733333,40.1672117,-105.101928
6057,PILOT TRAVEL CENTER #903,"I-70/US-40, EXIT 252",Salina,KS,523,3.759,38.8402805,-97.6114237
6057,PILOT TRAVEL CENTERS #903,"I-70/US-40, EXIT 252",Salina,KS,523,3.779,38.8402805,-97.6114237
6058,MOTOR INN AUTO TRUCK STOP,I-75 EXIT 110,Mendon,OH,370,3.199,40.673381,-84.5188439
6068,AYERCO #24,US-61 & CR MM,Hannibal,MO,494,3.099,39.7082498,-91.3587413
6082,Palmetto Truck Plaza,US-27/SR-25 & SR-826,Hialeah,FL,95,3.399,25.8575963,-80.2781057
6083,BP,"I-35, EXIT 33",Holt                                    ,MO,400,3.049,40.0989571,-95.2134565
6087,BREAK TIME #3173,US-54 & CR-HH,Fulton,MO,310,3.299,38.8467082,-91.9479586
6093,ONE9 #901,"I-80 & US-183, EXIT 257",Elm Creek,NE,330,2.96566666,40.7174179,-99.3732957
6096,Waverly Travel Center,US-23,Waverly                                 ,OH,315,3.41566666,39.126735,-82.9854553
6097,SAPP BROS TRAVEL CENTER,"I-80, EXIT 263",Elm Creek,NE,330,3.18733333,40.7174179,-99.3732957
6106,TA HUNTINGTON,"I-84, EXIT 353",Huntington,OR,982,3.639,44.3511565,-117.2663408
6111,HAWGS EXXON,US-167/SR-25,Batesville                              ,AR,418,3.359,35.7708144,-91.6531128
6150,CIRCLE K #2723707,"I-81,  EXIT 150",Troutville,VA,65,3.06566666,37.4181901,-79.8747687
6154,TA MOBILE TRAVEL CENTER,"I-10,  EXIT 4",Grand Bay,AL,715,3.13566666,30.472215300000002,-88.34654634228866
6164,PILOT TRAVEL CENTER #268,"I-80/US-6, EXIT 284",Walcott,IA,270,3.859,41.6183406153261,-90.77369683395811
6164,PILOT TRAVEL CENTERS #268,"I-80/US-6, EXIT 284",Walcott,IA,270,3.88566666,41.6183406153261,-90.77369683395811
6165,TEMP STOP #117,I-70 & GRAIN VALLEY RD EXIT 24,Grain Valley,MO,400,2.959,39.0187651,-94.1976452
6167,PILOT TRAVEL CENTERS #167,US-71,Nevada,MO,277,3.49566666,37.8381108,-94.3596185
6172,SPEEDWAY #2319,"I-96, EXIT 77",Portland,MI,431,3.699,45.5202471,-122.674194
6172,SPEEDWAY #2319,"I-96, EXIT 77",Portland,MI,431,3.549,45.5202471,-122.674194
6173,PILOT TRAVEL CENTERS #21,"I-94, EXIT 167",Dexter,MI,325,3.659,41.5165588,-94.2282377
6173,PILOT TRAVEL CENTERS #21,"I-94, EXIT 167",Dexter,MI,325,3.599,41.5165588,-94.2282377
6173,PILOT TRAVEL CENTERS #21,"I-94, EXIT 167",Dexter,MI,325,3.579,41.5165588,-94.2282377
6173,PILOT TRAVEL CENTERS #21,"I-94, EXIT 167",Dexter,MI,325,3.649,41.5165588,-94.2282377
6175,ONVO TRAVEL PLAZA - MIFFLINTOWN,US-322/US-22 & SR-35,Mifflintown,PA,138,3.479,40.5697996,-77.3969339
6179,HENDERSON TRAVEL PLAZA,"I-10, EXIT 115 & SR-347",Breaux Bridge                           ,LA,690,3.38566666,30.250352766489545,-91.88062386338974
6180,Circle #4703923,"I-24, EXIT 180B & US-27",Chattanooga,TN,285,2.78566666,35.0457219,-85.3094883
6182,Exxon,"I-20, EXIT 205 & SR-46",Heflin,AL,587,3.01566666,33.6489948,-85.5874584
6188,SIGNAL FOOD STORE #112,US-65 & SR-J,Ozark,MO,535,2.999,36.6467816,-92.4575198
6198,DAVIS TRAVEL CENTER #102,"I-95/US-301, EXIT 33 & SR-602",Stony Creek,VA,180,3.06566666,36.9479277,-77.4008113
6200,KWIK FILL #388,"I-80, EXIT 29 & SR-8",Harrisville,PA,165,3.404,41.1367335,-80.0092442
6206,PETRO PORTAGE,"I-90 & I-94, EXIT 108-A",Portage,WI,420,3.80733333,44.4604931,-89.5108818
6212,MR FUEL,"I-55, EXIT 180",Pevely,MO,540,3.01566666,38.2833879,-90.3951204
6214,PIONEER Travel Plaza,"I-41, EXIT 60 & SR-145",Richfield,WI,444,3.21566666,43.256116,-88.1939819
6215,FUEL HUB,"I-87, EXIT 21B",West Coxsackie,NY,12,3.599,42.3606399,-73.8167921
6218,LOVES TRAVEL STOP #215,"I-40, EXIT 16 & US-40 BUS/US-66",Gallup,NM,580,3.43733333,35.5283506,-108.743907
6219,SCHATZ CROSSROADS,US-2 /US-52,Minot,ND,452,3.549,48.23251,-101.296273
6221,LOVES TRAVEL STOP #214,I-10 EXIT 37,El Paso,TX,640,3.07566666,31.7601164,-106.4870404
6222,QUIKTRIP #236,"I-29/US-71, EXIT 18 & SR-92",Platte City,MO,400,2.999,39.3671841,-94.7795799
6227,MARLOWS FUEL CENTER,"I-20, EXIT 479",Dallas                                  ,TX,630,3.24066666,32.7036683571984,-96.58575207550355
6229,FUEL MART #764,"I-70, EXIT 66 & SR- 54",South Vienna                            ,OH,315,3.129,39.9270046,-83.6124236
6232,OASIS TRUCK STOP,"I-44 & SR-133, MM 145",Richland,MO,416,3.324,37.8569838,-92.4043396
6242,TA FORISTELL TRAVEL CENTER,"I-70, EXIT 203",Foristell,MO,540,3.019,38.8150501,-90.955972
6243,GARDEN INN TRAVEL PLAZA,US-60/US-63,Cabool,MO,535,3.299,37.123941,-92.1012678
6251,BREAUX BRIDGE VALERO #1408,"I-10 & SR-347, EXIT 115",Breaux Bridge,LA,730,3.499,30.250352766489545,-91.88062386338974
6252,PILOT TRAVEL CENTERS #12,I-80 & I-90 EXIT 71,Perrysburg,OH,550,3.759,41.5571178,-83.6279321
6258,CASEYS #6342,"I-29, EXIT 144 & US-169",Saint Joseph,MO,400,3.169,39.7686055,-94.8466322
6271,TA DENTON TRAVEL CENTER,"I-35, EXIT 471 & US-77",Denton,TX,630,3.254,33.28199673685661,-97.17765190021021
6275,TA SEATTLE EAST TRAVEL CENTER,"I-90, EXIT 34",North Bend,WA,962,3.959,47.4957757,-121.784889
6275,TA SEATTLE EAST TRAVEL CENTER,"I-90, EXIT 34",North Bend,WA,962,3.899,47.4957757,-121.784889
6275,TA SEATTLE EAST TRAVEL CENTER,"I-90, EXIT 34",North Bend,WA,962,3.859,47.4957757,-121.784889
6284,7-ELEVEN #40513,I-90/80-IN TOLL RD MM 22W,Portage,IN,365,3.999,41.5758708,-87.1761455
6286,APPLE MARKET #526,"I-64, EXIT 94",Winchester,KY,410,2.91566666,37.990079,-84.1796503
6290,FUEL KING NAPOLEON TRAVEL CENTER,"US-6/US-24/SR/CR-3, EXIT 41",Napoleon,OH,550,3.439,41.3922726,-84.1252243
6293,PETRO STOPPING CENTER #313,"I-40, EXIT 79",Milan,NM,580,3.57066666,35.1697175,-107.8908919
6296,GRAY TRUCK STOP,US-71/US-136,Maryville,MO,400,3.26566666,40.3460468,-94.8723858
6299,HWY 34 TRUCKSTOP,"US-34, EXIT 258",West Burlington                         ,IA,345,3.374,40.825083,-91.1565496
6305,I-95 Fuel Stop,"I-95, EXIT 126 & US-17/US-1",Fredericksburg,VA,180,3.264,38.3031837,-77.4605399
6307,QUIKTRIP #608,"I-70, MID RIVERS MALL",Saint Peters,MO,540,2.904,38.791612,-90.5958468
6308,Pilot Travel Centers #354,"I-64, EXIT 28",Simpsonville,KY,415,3.759,38.22257,-85.3552349
6309,WINNERS CIRCLE #1,"I-30 & US-270, EXIT 98A",Malvern,AR,695,3.35233333,34.3625823,-92.8092694
6310,CIRCLE K #2707515,US-27/SR-25 & US-98/US-700/SR-700/SR-66,Sebring,FL,140,3.389,27.4957453,-81.4410425
6315,AYERCO #25,US-24,Taylor,MO,494,3.01566666,39.9381011,-91.5237663
6318,Chisholm Corner #15,"I-35, EXIT 72 & US-19",Pauls Valley                            ,OK,569,3.38733333,34.7392055,-97.218509
6326,KANZA TRAVEL PLAZA,"I-35, EXIT 231 AND US-177",Braman,OK,500,3.02733333,36.9236404,-97.3336552
6327,PETRO STOPPING CENTER #312,"I-40 & I-75, EXIT 369",Knoxville,TN,405,3.42566666,35.97603695,-83.93144881048028
6330,TA EDINBURG TRAVEL CENTER,I-69C/US-281 & FM-2812,Edinburg,TX,639,3.01066666,26.3013982,-98.1624501
6334,231 PLAZA AND TRUCK STOP,US-231/SR-75 & SR-20,Youngstown,FL,20,3.494,30.3643628,-85.4382568
6341,TA RAWLINS TRAVEL CENTER,"I-80, EXIT 214",Rawlins,WY,795,3.72233333,41.7907878,-107.239176
6346,SPEEDWAY #4710,US-71/SR-60,Windom,MN,425,3.299,43.8663464,-95.1169366
6351,FLYING J TRAVEL PLAZA #608,"I-10, EXIT 1",Ehrenberg,AZ,930,3.959,33.616226999999995,-114.47891646902286
6356,CIRCLE K #2721536,ST 6 EAST,Batesville,MS,435,3.24066666,34.316488,-89.9527108
6370,TA ROCKWALL TRAVEL CENTER,"I-30/US-67, EXIT 68 & SR-205",Rockwall,TX,630,3.13733333,32.878012043213914,-96.51650297260895
6374,TA ELGIN WEST TRAVEL CENTER,I-90 &  US-20,Hampshire,IL,290,3.459,42.0978028,-88.5303643
6374,TA ELGIN WEST TRAVEL CENTER,I-90 &  US-20,Hampshire,IL,290,3.539,42.0978028,-88.5303643
6374,TA ELGIN WEST TRAVEL CENTER,I-90 &  US-20,Hampshire,IL,290,3.599,42.0978028,-88.5303643
6374,TA ELGIN WEST TRAVEL CENTER,I-90 &  US-20,Hampshire,IL,290,3.499,42.0978028,-88.5303643
6374,TA ELGIN WEST TRAVEL CENTER,I-90 &  US-20,Hampshire,IL,290,3.469,42.0978028,-88.5303643
6387,FLYING J FRANCHISE #966,"I-80, EXIT 229",Battle Mountain,NV,966,3.79233333,40.6418373,-116.938478
6391,TOOT N TOTUM #106,US-287,Dumas,TX,585,3.00566666,35.8630199,-101.9663192
6393,PILOT TRAVEL CENTER #478,"I-64, EXIT 92",Leavenworth                             ,IN,415,3.959,38.1997869,-86.3441439
6393,PILOT TRAVEL CENTERS #478,"I-64, EXIT 92",Leavenworth                             ,IN,415,3.959,38.1997869,-86.3441439
6401,CIRCLE K #2723457,"I-10, EXIT 34-B",Gulfport,MS,715,2.989,30.3674198,-89.0928155
6434,AMPRIDE ALL ROUND TRUCK STOP,US-20,Fort Dodge,IA,343,3.299,42.5044017,-94.1910044
6441,GRAND OIL,"I-75, EXIT 41 & SR-80",London                                  ,KY,410,3.499,37.1283343,-84.0835576
6442,CLARK OIL #49,US-84,Laurel,MS,620,2.999,31.6940509,-89.1306124
6448,CIRCLE K #2723392,"I-59, EXIT 97 & US-84",Laurel,MS,620,2.95233333,31.6940509,-89.1306124
6462,ARCO #471770,US-281 & SR-5,Dunseith,ND,452,3.499,48.813057,-100.060968
6468,TA SAYRE TRAVEL CENTER,"I-40 & CEMETARY RD, EXIT 26",Sayre,OK,483,3.064,35.2979543,-99.6399648
6480,FLYING J #934,"I-84, EXIT 265",La Grande,OR,982,3.53566666,45.3246068,-118.0878695
6492,FLICKS,US-49,Richland,MS,760,2.999,32.2390366,-90.1584207
6496,SPEEDY EXPRESS #38,"I-35, EXIT 305",Mathis,TX,625,3.199,28.093239750244706,-97.81080177297481
6502,SQUAW CREEK TRAVEL PLAZA,"I-29, EXIT 79 & US-159",Forest City,MO,400,3.339,39.9824969,-95.1919204
6517,HARDYS #5,"I-80, EXIT 4   4",Wendover,UT,835,3.499,40.7374014,-114.0304541
6518,TOWN PUMP FOOD STORE #310,"I-15, EXIT 164",Boulder,MT,816,3.559,46.236595,-112.120834
6526,TULIP CITY TRUCK STOP,"I-196 & SR-40, EXIT 49",Holland,MI,344,3.739,42.7876022,-86.1090828
6527,ZIP TRIP #50,"I-90, EXIT 426",Park City,MT,780,3.584,45.6327243,-108.9179269
6547,FLYING J TRAVEL PLAZA #762,"I-90, EXIT 126 & SR-59",Gillette,WY,836,3.899,44.2920496,-105.45725561060374
6562,PILOT #1323,"I-29, EXIT 35                 ",Faucett                                 ,MO,400,3.27233333,39.6006007,-94.801019
6563,Road Ranger #282,"I-35, EXIT 500",Gainesville,TX,630,3.17566666,33.61744678824029,-97.15009843966139
6564,FLYING J FRANCHISE #970,US-395,Pasco                                   ,WA,925,4.599,46.2306739,-119.0921
6565,TA Greeneville Travel Center,"I-81,  EXIT 36",Greeneville,TN,405,3.55233333,36.1631575,-82.8309861
6567,YELLOWSTONE TRUCK SHOP,"I-90, EXIT 330",Livingston,MT,786,3.649,45.6623873,-110.5615899
6577,AC & T TRAVEL CENTER,"I-81, EXIT 5 W",Hagerstown,MD,70,3.659,39.6430455,-77.7191081
